name,latitude,longitude,stop_number,direction,street
Southbound Castlebrook at Windflower,49.78022,-97.20777,62040,Southbound,Castlebrook Drive
Northbound Castlebrook at Windflower,49.78042,-97.20771,62039,Northbound,Castlebrook Drive
Westbound Skyline at Kilroy,49.77932,-97.20401,62038,Westbound,Skyline Drive
Eastbound Skyline at Berry Hill,49.77923,-97.20369,62041,Eastbound,Skyline Drive
Westbound Skyline at Highpark,49.77985,-97.20002,62080,Westbound,Skyline Drive
Eastbound Skyline at Highpark,49.77981,-97.1997,62079,Eastbound,Skyline Drive
Southbound Eaglewood at Kilroy,49.78223,-97.19918,62037,Southbound,Eaglewood Drive
Northbound Eaglewood at Kilroy,49.78241,-97.19912,62033,Northbound,Eaglewood Drive
Southbound Eaglewood at Longspur,49.78051,-97.19679,62022,Southbound,Eaglewood Drive
Northbound Eaglewood at Longspur,49.78015,-97.19626,62021,Northbound,Eaglewood Drive
Eastbound Bridge Lake at Del Monica (School Charter),49.78397,-97.19707,63012,Eastbound,Bridge Lake Drive
Northbound Waverley at Firestone,49.77476,-97.19844,62116,Northbound,Waverley Street
Southbound Waverley at Firestone,49.77418,-97.19917,62118,Southbound,Waverley Street
Southbound Eaglewood at Waverley,49.77803,-97.19528,62075,Southbound,Eaglewood Drive
Northbound Eaglewood at Waverley,49.77823,-97.19512,62078,Northbound,Eaglewood Drive
Southbound Bridge Lake at Del Monica,49.78455,-97.19683,62074,Southbound,Bridge Lake Drive
Southbound Waverley at Youngstown,49.77229,-97.20223,62119,Southbound,Waverley Street
Northbound Waverley at Youngstown,49.77208,-97.20235,62117,Northbound,Waverley Street
Southbound Ken Oblik at Waverley,49.77658,-97.19439,63014,Southbound,Ken Oblik Drive
Southbound Bridge Lake at South Town,49.78783,-97.20011,62035,Southbound,Bridge Lake Drive
Southbound Bridge Lake at Valley Brook,49.78693,-97.19716,62036,Southbound,Bridge Lake Drive
Northbound Bridge Lake at Stone Meadow,49.78728,-97.19774,62034,Northbound,Bridge Lake Drive
Westbound Ken Oblik at Youngstown,49.7701,-97.20228,62088,Westbound,Ken Oblik Drive
Northbound Bridge Lake at Willow Creek,49.78975,-97.20157,62094,Northbound,Bridge Lake Drive
Eastbound Ken Oblik at Youngstown,49.76998,-97.20236,62111,Eastbound,Ken Oblik Drive
Eastbound Bison at Appleford,49.79068,-97.20893,62023,Eastbound,Bison Drive
Westbound Bridge Lake at Willow Creek,49.79022,-97.20201,61226,Westbound,Bridge Lake Drive
Westbound Ken Oblik at Florence,49.77019,-97.1987,62087,Westbound,Ken Oblik Drive
Westbound Waverley at Kenaston,49.77887,-97.18986,61299,Westbound,Waverley Street
Eastbound Ken Oblik at Florence,49.77008,-97.19831,62112,Eastbound,Ken Oblik Drive
Eastbound Ken Oblik at Ken Wong,49.77493,-97.19101,62083,Eastbound,Ken Oblik Drive
Westbound Bridge Lake at Bankfield,49.79142,-97.20381,61225,Westbound,Bridge Lake Drive
Eastbound Waverley at Kenaston,49.77883,-97.18901,61297,Eastbound,Waverley Street
Northbound Bridge Lake at Bison,49.79181,-97.20405,62095,Northbound,Bridge Lake Drive
Eastbound South Town at Centre,49.79084,-97.19739,61228,Eastbound,South Town Road
Westbound Ken Oblik at Crystal Lake,49.77022,-97.19419,62086,Westbound,Ken Oblik Drive
Westbound Bridge Lake at Red Spruce,49.79304,-97.206,61224,Westbound,Bridge Lake Drive
Eastbound Ken Oblik at Bass (School Charter),49.77006,-97.19337,63008,Eastbound,Ken Oblik Drive
Eastbound Ken Oblik at Northwater,49.77389,-97.18877,63010,Eastbound,Ken Oblik Drive
Northbound Centre at Park West North,49.79199,-97.19711,61233,Northbound,Centre Street
Southbound Ken Oblik at Northwater,49.77339,-97.1887,62084,Southbound,Ken Oblik Drive
Southbound Centre at Park West,49.79254,-97.19745,62097,Southbound,Centre Street
Eastbound South Town at Kenaston,49.79157,-97.19461,62098,Eastbound,South Town Road
Westbound South Town at Kenaston,49.79171,-97.1944,62104,Westbound,South Town Road
Westbound Ken Oblik at Hughes,49.77085,-97.18989,62085,Westbound,Ken Oblik Drive
Eastbound Ken Oblik at Hughes,49.77083,-97.18967,63009,Eastbound,Ken Oblik Drive
Northbound Waverley at Payworks,49.77999,-97.1845,62076,Northbound,Waverley Street
Eastbound Bison at Park West,49.79394,-97.19993,62096,Eastbound,Bison Drive
Westbound Waverley at John Angus,49.78033,-97.18397,62003,Westbound,Waverley Street
Westbound Bridge Lake at Lake Bend,49.79511,-97.20753,61223,Westbound,Bridge Lake Drive
Southbound John Angus at Tellier,49.78436,-97.18476,61184,Southbound,John Angus Drive
Westbound Bison at Park West,49.79439,-97.19958,62105,Westbound,Bison Drive
Northbound John Angus at Tellier,49.78453,-97.18456,61176,Northbound,John Angus Drive
Northbound Centre at Bison,49.79417,-97.19764,61231,Northbound,Centre Street
Southbound John Angus at Waverley,49.78108,-97.18322,61298,Southbound,John Angus Drive
Northbound John Angus at Waverley,49.78147,-97.18325,61190,Northbound,John Angus Drive
Northbound Tim Sale at Kirkbridge,49.77878,-97.18172,61244,Northbound,Tim Sale Drive
Southbound Centre at Cooper's Town,49.79552,-97.19819,62060,Southbound,Centre Street
Southbound Tim Sale at Stan Bailie,49.77791,-97.18163,61243,Southbound,Tim Sale Drive
Eastbound John Angus at Brookstone West,49.78614,-97.18317,61177,Eastbound,John Angus Drive
Northbound Centre at Cooper's Town,49.79566,-97.19799,61232,Northbound,Centre Street
Eastbound Bison at Park East,49.7951,-97.1956,62061,Eastbound,Bison Drive
Westbound Bison at Park East,49.79528,-97.19581,62056,Westbound,Bison Drive
Westbound John Angus at Caribou,49.78654,-97.18257,61183,Westbound,John Angus Drive
Westbound Bridge Lake at Water Bend,49.79751,-97.20712,61222,Westbound,Bridge Lake Drive
Northbound Tim Sale at Trailside,49.77655,-97.18043,61246,Northbound,Tim Sale Drive
Eastbound Joe Keeper at Ruth,49.79266,-97.18765,62099,Eastbound,Joe Keeper Way
Eastbound Kirkbridge at Tim Sale,49.78043,-97.17289,61251,Eastbound,Kirkbridge Drive
Westbound Kirkbridge at Millstream,49.78055,-97.17227,61252,Westbound,Kirkbridge Drive
Eastbound Kirkbridge at Bairdmore,49.78047,-97.17035,62000,Eastbound,Kirkbridge Drive
Westbound Kirkbridge at Bairdmore,49.78062,-97.17015,62002,Westbound,Kirkbridge Drive
Southbound Bairdmore at Kirkbridge,49.78038,-97.16954,61016,Southbound,Bairdmore Boulevard
Northbound Bairdmore at Kirkbridge,49.7803,-97.1693,61017,Northbound,Bairdmore Boulevard
Westbound Tim Sale at Waterstone,49.77582,-97.17694,61248,Westbound,Tim Sale Drive
Eastbound Tim Sale at Stan Bailie (South),49.7757,-97.17648,61247,Eastbound,Tim Sale Drive
Southbound Bairdmore at Millstream,49.77851,-97.16887,60895,Southbound,Bairdmore Boulevard
Southbound Tim Sale at Northern Lights,49.77608,-97.1798,61245,Southbound,Tim Sale Drive
Northbound Bairdmore at Millstream,49.77851,-97.16866,60804,Northbound,Bairdmore Boulevard
Northbound Bairdmore at Bernfield North,49.7837,-97.17041,61018,Northbound,Bairdmore Boulevard
Southbound Bairdmore at Bernfield North,49.78397,-97.17058,61015,Southbound,Bairdmore Boulevard
Eastbound Kirkbridge at Brentlawn,49.78109,-97.1661,62001,Eastbound,Kirkbridge Drive
Southbound Bairdmore at Point West,49.77711,-97.16685,60896,Southbound,Bairdmore Boulevard
Northbound Bairdmore at Point West,49.77721,-97.1664,60803,Northbound,Bairdmore Boulevard
Northbound Brentlawn at Kirkbridge,49.78089,-97.16514,60898,Northbound,Brentlawn Boulevard
Southbound Bairdmore at Hawstead,49.78586,-97.1699,61014,Southbound,Bairdmore Boulevard
Northbound Bairdmore at Hawstead,49.78608,-97.16976,61019,Northbound,Bairdmore Boulevard
Westbound Kirkbridge at Brentlawn South,49.78142,-97.1647,60893,Westbound,Kirkbridge Drive
Eastbound John Angus at Gelley,49.78762,-97.17886,61178,Eastbound,John Angus Drive
Northbound Bairdmore at Brentlawn,49.77844,-97.1637,60738,Northbound,Bairdmore Boulevard
Westbound John Angus at Shipley,49.78772,-97.17898,61182,Westbound,John Angus Drive
Southbound Bairdmore at Southborough,49.77837,-97.16354,60897,Southbound,Bairdmore Boulevard
Eastbound John Angus at Brookstone,49.78812,-97.17487,61179,Eastbound,John Angus Drive
Westbound John Angus at Kingfisher,49.78826,-97.1752,61181,Westbound,John Angus Drive
Eastbound Sandusky at Bairdmore,49.78801,-97.17096,61180,Eastbound,Sandusky Drive
Northbound Bairdmore at Sandusky,49.78785,-97.17016,61020,Northbound,Bairdmore Boulevard
Southbound Bairdmore at Sandusky,49.7884,-97.17033,61013,Southbound,Bairdmore Boulevard
Westbound Kirkbridge at Allendale,49.78295,-97.1622,60683,Westbound,Kirkbridge Drive
Eastbound Kirkbridge at Allendale,49.78286,-97.16202,60742,Eastbound,Kirkbridge Drive
Westbound Kirkbridge at Brentlawn North,49.7851,-97.16312,60682,Westbound,Kirkbridge Drive
Eastbound Kirkbridge at Hawstead,49.78558,-97.16318,60743,Eastbound,Kirkbridge Drive
Westbound Grandmont at Lamirande,49.77112,-97.16465,60020,Westbound,Grandmont Boulevard
Eastbound Grandmont at Delorme West,49.77087,-97.16499,60760,Eastbound,Grandmont Boulevard
Westbound Grandmont at Le Maire,49.76989,-97.16731,60019,Westbound,Grandmont Boulevard
Eastbound Grandmont at le Maire,49.76985,-97.16703,60759,Eastbound,Grandmont Boulevard
Southbound Bairdmore at Calderwood West,49.79079,-97.16848,61012,Southbound,Bairdmore Boulevard
Northbound Bairdmore at Calderwood West,49.79082,-97.16796,61021,Northbound,Bairdmore Boulevard
Southbound Pembina at Dalhousie South,49.78129,-97.15708,60028,Southbound,Pembina Highway
Southbound Pembina at De Vos,49.77948,-97.15697,60026,Southbound,Pembina Highway
Eastbound Grandmont at Delorme East,49.77115,-97.16238,60761,Eastbound,Grandmont Boulevard
Northbound Pembina at De Vos,49.78015,-97.15657,60027,Northbound,Pembina Highway
Northbound Pembina at Dalhousie South,49.78211,-97.1567,60029,Northbound,Pembina Highway
Westbound Grandmont at Berard,49.77122,-97.16199,60021,Westbound,Grandmont Boulevard
Westbound Kirkbridge at Marrington,49.78818,-97.16099,60454,Westbound,Kirkbridge Drive
Eastbound Kirkbridge at Hillmartin,49.78806,-97.16062,60452,Eastbound,Kirkbridge Drive
Southbound Keslar at Bairdmore,49.79156,-97.16683,61146,Southbound,Keslar Road
Northbound Keslar at Bairdmore,49.79172,-97.16679,61145,Northbound,Keslar Road
Southbound Pembina at Newdale North,49.78609,-97.15737,60033,Southbound,Pembina Highway
Southbound Le Maire at la Porte,49.76809,-97.16635,60089,Southbound,Le Maire Street
Northbound Le Maire at la Porte,49.76813,-97.16616,60094,Northbound,Le Maire Street
Southbound Bairdmore at Calderwood East,49.79177,-97.16565,61011,Southbound,Bairdmore Boulevard
Northbound Bairdmore at Calderwood East,49.79187,-97.16492,61022,Northbound,Bairdmore Boulevard
Southbound Pembina at Cloutier South,49.77353,-97.15661,60058,Southbound,Pembina Highway
Northbound Pembina at Newdale North,49.78693,-97.15698,60032,Northbound,Pembina Highway
Northbound Pembina at Cloutier South,49.77347,-97.15621,60059,Northbound,Pembina Highway
Westbound Kirkbridge at Pembina West,49.78903,-97.15848,60425,Westbound,Kirkbridge Drive
Southbound Pembina at Killarney,49.7882,-97.1575,60034,Southbound,Pembina Highway
Westbound Grandmont at Pembina,49.77172,-97.15747,60022,Westbound,Grandmont Boulevard
Eastbound Kirkbridge at Pembina West,49.78893,-97.15807,60745,Eastbound,Kirkbridge Drive
Eastbound Grandmont at Pembina,49.77149,-97.15731,60762,Eastbound,Grandmont Boulevard
Westbound Joe Keeper at Ruth,49.7929,-97.18739,62103,Westbound,Joe Keeper Way
Northbound Bairdmore at Marrington,49.79256,-97.16288,61023,Northbound,Bairdmore Boulevard
Northbound Pembina at Killarney,49.78905,-97.15712,61104,Northbound,Pembina Highway
Southbound Bairdmore at Marrington,49.79265,-97.16303,61040,Southbound,Bairdmore Boulevard
Southbound Pembina at Grandmont,49.77104,-97.15694,62007,Southbound,Pembina Highway
Northbound Pembina at Grandmont,49.7713,-97.15653,62006,Northbound,Pembina Highway
Southbound Keslar at Wayfield,49.79482,-97.16946,61144,Southbound,Keslar Road
Southbound Baylor at Dalhousie,49.78366,-97.15248,60035,Southbound,Baylor Avenue
Northbound Keslar at Wayfield,49.79503,-97.16948,61143,Northbound,Keslar Road
Southbound Baylor at Leeds,49.78535,-97.15294,60661,Southbound,Baylor Avenue
Westbound Killarney at Pembina East,49.78963,-97.15658,60064,Westbound,Killarney Avenue
Southbound Dalhousie at Baylor,49.78365,-97.15202,60036,Southbound,Dalhousie Drive
Eastbound Killarney at Pembina East,49.7896,-97.15624,60063,Eastbound,Killarney Avenue
Northbound Baylor at Leeds,49.78554,-97.15274,60662,Northbound,Baylor Avenue
Westbound Ducharme at le Maire,49.76587,-97.16422,60758,Westbound,Ducharme Avenue
Westbound Ducharme at Houde,49.76734,-97.1606,60671,Westbound,Ducharme Avenue
Eastbound Ducharme at le Maire,49.76583,-97.16394,60017,Eastbound,Ducharme Avenue
Eastbound Ducharme at Houde,49.76727,-97.1604,60016,Eastbound,Ducharme Avenue
Westbound Ducharme at Villeneuve,49.7679,-97.15902,60014,Westbound,Ducharme Avenue
Eastbound Ducharme at Villeneuve,49.76785,-97.15872,60782,Eastbound,Ducharme Avenue
Southbound Baylor at Mount Allison,49.78789,-97.15295,60657,Southbound,Baylor Avenue
Northbound Baylor at Mount Allison,49.78761,-97.15266,60658,Northbound,Baylor Avenue
Northbound Pembina at Ducharme,49.76882,-97.15642,62005,Northbound,Pembina Highway
Southbound Baylor at Killarney,49.7898,-97.15451,60062,Southbound,Baylor Avenue
Southbound Frontier at Joe Keeper,49.79665,-97.18018,62102,Southbound,Frontier Trail
Northbound Frontier at Joe Keeper,49.79672,-97.18005,62100,Northbound,Frontier Trail
Northbound Baylor at Killarney,49.7899,-97.15438,60061,Northbound,Baylor Avenue
Southbound Pembina at Greencrest,49.79234,-97.15766,60065,Southbound,Pembina Highway
Eastbound Lee at Keslar,49.79641,-97.1689,61142,Eastbound,Lee Boulevard
Westbound Lee at Keslar,49.79647,-97.16915,61141,Westbound,Lee Boulevard
Westbound Killarney at Baylor,49.79026,-97.1547,60060,Westbound,Killarney Avenue
Southbound Pembina at Ducharme,49.76812,-97.15646,60805,Southbound,Pembina Highway
Eastbound Killarney at Baylor,49.7903,-97.15418,60157,Eastbound,Killarney Avenue
Northbound Pembina at Greencrest,49.7926,-97.15725,60066,Northbound,Pembina Highway
Southbound Bairdmore at Barnes,49.79419,-97.16008,61010,Southbound,Bairdmore Boulevard
Northbound Bairdmore at Firbridge,49.79407,-97.15979,61024,Northbound,Bairdmore Boulevard
Northbound Dalhousie at Ryerson,49.78601,-97.14708,60039,Northbound,Dalhousie Drive
Southbound Dalhousie at Nuffield,49.78598,-97.14732,60040,Southbound,Dalhousie Drive
Northbound Dalhousie at Rochester,49.78716,-97.14631,60041,Northbound,Dalhousie Drive
Southbound Dalhousie at Greyfriars,49.78792,-97.14606,60042,Southbound,Dalhousie Drive
Northbound Dalhousie at St. Edmund's,49.78899,-97.14515,60043,Northbound,Dalhousie Drive
Southbound Dalhousie at Selwyn,49.79001,-97.14472,60044,Southbound,Dalhousie Drive
Southbound Dalhousie at Radcliffe,49.79188,-97.14372,60046,Southbound,Dalhousie Drive
Eastbound Lemay at St. Pierre,49.76804,-97.14524,60750,Eastbound,Lemay Avenue
Eastbound Killarney at Caledon,49.79112,-97.15178,60158,Eastbound,Killarney Avenue
Westbound Killarney at Caledon,49.79113,-97.15215,60057,Westbound,Killarney Avenue
Eastbound Killarney at Acadia,49.79219,-97.14864,60159,Eastbound,Killarney Avenue
Northbound Dalhousie at St. Dunstan's,49.79257,-97.14386,60047,Northbound,Dalhousie Drive
Southbound St Pierre at St. Gabriel,49.76732,-97.14445,60751,Southbound,St Pierre Street
Westbound Killarney at Acadia,49.79243,-97.14834,60056,Westbound,Killarney Avenue
Westbound Killarney at Briar Cliff,49.79321,-97.14603,60053,Westbound,Killarney Avenue
Eastbound Killarney at Briar Cliff,49.79326,-97.14547,60160,Eastbound,Killarney Avenue
Eastbound Lemay at La Barriere,49.76696,-97.14832,60749,Eastbound,Lemay Avenue
Northbound Pembina at De La Digue,49.7667,-97.15466,62004,Northbound,Pembina Highway
Northbound Dalhousie at Purdue,49.79489,-97.14574,60051,Northbound,Dalhousie Drive
Southbound Pembina at Station,49.76669,-97.1552,60746,Southbound,Pembina Highway
Westbound De L'eglise at St. Pierre,49.76488,-97.14483,60753,Westbound,De L'eglise Avenue
Westbound De L'eglise at Campeau,49.76482,-97.149,60755,Westbound,De L'eglise Avenue
Southbound Dalhousie at Purdue,49.79556,-97.14648,60052,Southbound,Dalhousie Drive
Eastbound Lemay at Pembina,49.76533,-97.15281,60747,Eastbound,Lemay Avenue
Westbound De L'eglise at Pembina East,49.76474,-97.15254,60756,Westbound,De L'eglise Avenue
Southbound Pembina at Lemay,49.76503,-97.15373,62042,Southbound,Pembina Highway
Northbound Villeneuve at Gendreau,49.76561,-97.15661,60018,Northbound,Villeneuve Boulevard
Eastbound Silverstone at McGill,49.7966,-97.14572,60075,Eastbound,Silverstone Avenue
Westbound Silverstone at McGill,49.79674,-97.14573,60076,Westbound,Silverstone Avenue
Westbound Des Trappistes at Pembina West,49.76441,-97.15394,60783,Westbound,Des Trappistes Street
Eastbound Dalhousie at Pembina East,49.79512,-97.15667,60068,Eastbound,Dalhousie Drive
Eastbound Dalhousie at Ulster,49.79621,-97.15344,60070,Eastbound,Dalhousie Drive
Westbound Dalhousie at Pembina East,49.79524,-97.157,60679,Westbound,Dalhousie Drive
Eastbound Silverstone at MacAlester,49.79741,-97.14335,60077,Eastbound,Silverstone Avenue
Northbound Pembina at Dalhousie North,49.79531,-97.15715,60069,Northbound,Pembina Highway
Westbound Dalhousie at Ulster,49.79632,-97.15382,60071,Westbound,Dalhousie Drive
Westbound Silverstone at Laval,49.79755,-97.14336,60078,Westbound,Silverstone Avenue
Westbound Des Trappistes at Villeneuve,49.76395,-97.1553,60757,Westbound,Des Trappistes Street
Eastbound Dalhousie at Allegheny,49.79701,-97.15108,60073,Eastbound,Dalhousie Drive
Westbound Dalhousie at Allegheny,49.79697,-97.15186,60072,Westbound,Dalhousie Drive
Eastbound Dalhousie at Allegheny East,49.7976,-97.14871,60680,Eastbound,Dalhousie Drive
Westbound Dalhousie at Silverstone West,49.7977,-97.14822,60681,Westbound,Dalhousie Drive
Southbound Brady at Vitran,49.81216,-97.21953,62045,Southbound,Brady Road
Northbound Brady at Vitran,49.81262,-97.21938,62048,Northbound,Brady Road
Southbound Scurfield at Ivy Lea,49.80511,-97.21643,60956,Southbound,Scurfield Boulevard
Northbound Scurfield at Vanderbilt,49.80537,-97.21631,60950,Northbound,Scurfield Boulevard
Northbound Scurfield at Izatt School,49.80715,-97.21541,60951,Northbound,Scurfield Boulevard
Southbound Scurfield at Izatt School,49.80742,-97.21527,60938,Southbound,Scurfield Boulevard
Westbound Fleetwood at Royal Oak,49.81107,-97.21601,62047,Westbound,Fleetwood Road
Eastbound Fleetwood at Royal Oak,49.81092,-97.21591,62046,Eastbound,Fleetwood Road
Westbound Scurfield at Vineland,49.80375,-97.21417,60948,Westbound,Scurfield Boulevard
Eastbound Scurfield at Vineland,49.80352,-97.21321,60933,Eastbound,Scurfield Boulevard
Northbound Fort Whyte at Fort Whyte Alive,49.81579,-97.21826,62044,Northbound,Fort Whyte Loop
Southbound Scurfield at Fleetwood West,49.80962,-97.21247,60930,Southbound,Scurfield Boulevard
Northbound Scurfield at Fleetwood West,49.80979,-97.21217,60952,Northbound,Scurfield Boulevard
Westbound Scurfield at Sheffield,49.80638,-97.20856,60946,Westbound,Scurfield Boulevard
Eastbound Scurfield at Sheffield,49.80656,-97.20842,60935,Eastbound,Scurfield Boulevard
Eastbound Scurfield at Beacon Hill,49.80449,-97.20971,60934,Eastbound,Scurfield Boulevard
Westbound Scurfield at Beacon Hill,49.80433,-97.21049,60947,Westbound,Scurfield Boulevard
Eastbound Columbia at Westmoreland,49.80891,-97.20394,60901,Eastbound,Columbia Drive
Eastbound Scurfield at Fleetwood East,49.80947,-97.2085,60937,Eastbound,Scurfield Boulevard
Westbound Scurfield at Fleetwood East,49.80957,-97.2087,60715,Westbound,Scurfield Boulevard
Westbound Columbia at Westmoreland,49.80923,-97.20413,60900,Westbound,Columbia Drive
Eastbound Columbia at Scurfield,49.81043,-97.2061,60892,Eastbound,Columbia Drive
Westbound Columbia at Scurfield,49.8107,-97.20621,60891,Westbound,Columbia Drive
Eastbound Columbia at Shillingstone,49.80872,-97.19989,60854,Eastbound,Columbia Drive
Westbound Bridge Lake at Rose Garden,49.80007,-97.2028,61220,Westbound,Bridge Lake Drive
Westbound Columbia at Prospect,49.80921,-97.19889,60860,Westbound,Columbia Drive
Southbound Scurfield at Portwood,49.81211,-97.21155,60955,Southbound,Scurfield Boulevard
Westbound Bridge Lake at Sablewood,49.79882,-97.20512,61221,Westbound,Bridge Lake Drive
Southbound Columbia at Saxon,49.81112,-97.19743,60859,Southbound,Columbia Drive
Northbound Columbia at Saxon,49.81125,-97.19734,60856,Northbound,Columbia Drive
Southbound Columbia at Exbury,49.81227,-97.1989,60828,Southbound,Columbia Drive
Southbound Scurfield at Invermere,49.81375,-97.21133,60954,Southbound,Scurfield Boulevard
Northbound Columbia at Exbury,49.81264,-97.19911,60829,Northbound,Columbia Drive
Westbound North Town at Centre St.,49.79867,-97.19793,61219,Westbound,North Town Road
Eastbound Scurfield at Columbia East,49.81432,-97.20067,60719,Eastbound,Scurfield Boulevard
Southbound Scurfield at Leander,49.81504,-97.21065,60389,Southbound,Scurfield Boulevard
Southbound Columbia at Scurfield,49.81491,-97.20182,61112,Southbound,Columbia Drive
Westbound Scurfield at Columbia East,49.81456,-97.20038,60717,Westbound,Scurfield Boulevard
Northbound Columbia at Scurfield,49.81488,-97.20139,61105,Northbound,Columbia Drive
Southbound Centre at North Town,49.79793,-97.19728,62049,Southbound,Centre Street
Northbound Centre at North Town,49.79801,-97.19707,61234,Northbound,Centre Street
Eastbound North Town at Kenaston,49.7988,-97.19516,62026,Eastbound,North Town Road
Westbound North Town at Kenaston,49.79901,-97.19472,62025,Westbound,North Town Road
Southbound Columbia at Marygrove South,49.81614,-97.20377,61111,Southbound,Columbia Drive
Southbound Scurfield at Breckenridge,49.81623,-97.20973,61126,Southbound,Scurfield Boulevard
Northbound Columbia at Marygrove South,49.8163,-97.20353,61106,Northbound,Columbia Drive
Eastbound Scurfield at Kenaston West,49.81518,-97.19779,60864,Eastbound,Scurfield Boulevard
Westbound Scurfield at Kenaston West,49.81536,-97.19799,60858,Westbound,Scurfield Boulevard
Southbound Scurfield at Moncrief,49.81726,-97.20747,61125,Southbound,Scurfield Boulevard
Southbound Columbia at Marygrove North,49.81748,-97.20488,61110,Southbound,Columbia Drive
Westbound North Town at Hill Grove,49.79975,-97.19086,61276,Westbound,North Town Road
Northbound Columbia at Marygrove North,49.81773,-97.2047,61107,Northbound,Columbia Drive
Southbound Bridgeland at Oak Lawn,49.80311,-97.1887,61169,Southbound,Bridgeland Drive
Eastbound North Town at Hill Grove,49.79971,-97.19067,61273,Eastbound,North Town Road
Northbound Bridgeland at Oak Lawn,49.80326,-97.1886,61159,Northbound,Bridgeland Drive
Eastbound Bridgeland at Bridlewood,49.80595,-97.18792,61160,Eastbound,Bridgeland Drive
Westbound Bridgeland at Clovercrest,49.80634,-97.18783,61168,Westbound,Bridgeland Drive
Southbound Columbia at McGillivray,49.81898,-97.20606,60883,Southbound,Columbia Drive
Southbound Henlow at Fultz,49.81382,-97.1907,60957,Southbound,Henlow Bay
Northbound Columbia at McGillivray,49.81906,-97.20577,60865,Northbound,Columbia Drive
Northbound Henlow at Fultz,49.81398,-97.19061,60433,Northbound,Henlow Bay
Northbound Henlow at Scurfield South,49.81533,-97.19171,60712,Northbound,Henlow Bay
Westbound Scurfield at Henlow,49.81677,-97.19383,60826,Westbound,Scurfield Boulevard
Eastbound Scurfield at Henlow West,49.81676,-97.19313,60825,Eastbound,Scurfield Boulevard
Northbound Henlow at Scurfield,49.81661,-97.19273,61201,Northbound,Henlow Bay
Eastbound McGillivray at Kenaston,49.82025,-97.20379,61108,Eastbound,McGillivray Boulevard
Southbound Kenaston Common at McGillivray (Costco),49.82046,-97.20706,61241,Southbound,Kenaston Common Drive
Westbound McGillivray at Kenaston,49.82033,-97.20409,61109,Westbound,McGillivray Boulevard
Westbound North Town at North Town,49.80234,-97.18481,61275,Westbound,North Town Road
Eastbound North Town at Bridgeland,49.80216,-97.18481,61274,Eastbound,North Town Road
Northbound Columbia Drive at McGillivray North,49.82064,-97.20697,61151,Northbound,Kenaston Common Drive
Southbound Dovercourt at Henlow,49.81483,-97.18785,60459,Southbound,Dovercourt Drive
Northbound Dovercourt at Henlow,49.81505,-97.18781,60958,Northbound,Dovercourt Drive
Southbound Dovercourt at Scurfield South,49.81624,-97.18901,60456,Southbound,Dovercourt Drive
Eastbound Bridgeland at Beachham,49.80854,-97.1831,61161,Eastbound,Bridgeland Drive
Southbound North Town at Bison,49.80097,-97.18375,62167,Southbound,North Town Road
Northbound North Town at Bison,49.80108,-97.18361,62168,Northbound,North Town Road
Northbound Dovercourt at Scurfield South,49.81645,-97.18894,60959,Northbound,Dovercourt Drive
Westbound Bridgeland at Beachham,49.80878,-97.18281,61167,Westbound,Bridgeland Drive
Westbound Bridgeland at Maple Creek,49.80209,-97.18289,61158,Westbound,Bridgeland Drive
Westbound Scurfield at Dovercourt,49.81781,-97.19056,60913,Westbound,Scurfield Boulevard
Southbound Dovercourt at Scurfield,49.81757,-97.19008,60961,Southbound,Dovercourt Drive
Eastbound Scurfield at Dovercourt,49.81776,-97.1903,60912,Eastbound,Scurfield Boulevard
Eastbound Bridgeland at Maple Creek,49.8021,-97.1825,61170,Eastbound,Bridgeland Drive
Northbound Dovercourt at Scurfield,49.81771,-97.18998,60960,Northbound,Dovercourt Drive
Southbound Kenaston Common at Kenaston (Rona),49.82252,-97.20742,61240,Southbound,Kenaston Common Drive
Northbound Columbia Drive at Kenaston Common,49.82272,-97.20721,61152,Northbound,Kenaston Common Drive
Southbound Frontier at Cadboro,49.7994,-97.18244,63013,Southbound,Frontier Trail
Southbound Kenaston at Wal-Mart,49.82225,-97.19953,60709,Southbound,Kenaston Boulevard
Northbound Kenaston at Wal-Mart,49.82285,-97.20056,60706,Northbound,Kenaston Boulevard
Northbound Frontier at Cadboro,49.79897,-97.18191,62101,Northbound,Frontier Trail
Southbound Dovercourt at Ocean Ridge,49.82051,-97.19221,61122,Southbound,Dovercourt Drive
Northbound Dovercourt at Ocean Ridge,49.82072,-97.19215,61123,Northbound,Dovercourt Drive
Eastbound Arbour Meadow at Bridgeland,49.80688,-97.17478,61164,Eastbound,Arbour Meadow Gate
Westbound Arbour Meadow at Bridgeland,49.80713,-97.17486,61155,Westbound,Arbour Meadow Gate
Eastbound Bridgeland at Poplar Point,49.80373,-97.17772,61171,Eastbound,Bridgeland Drive
Westbound Bridgeland at Highland Creek,49.80381,-97.17792,61157,Westbound,Bridgeland Drive
Northbound Bridgeland at Appletree,49.80847,-97.1759,61165,Northbound,Bridgeland Drive
Southbound Bridgeland at Brockington,49.80869,-97.17628,61163,Southbound,Bridgeland Drive
Southbound Chancellor at Lake Crest,49.80726,-97.17159,60171,Southbound,Chancellor Drive
Northbound Chancellor at Lakeside,49.80775,-97.17139,60172,Northbound,Chancellor Drive
Northbound Chancellor at Lake Lindero,49.80928,-97.17141,60175,Northbound,Chancellor Drive
Southbound Chancellor at Lake Lindero,49.80961,-97.1716,60176,Southbound,Chancellor Drive
Eastbound Bridgeland at Lake Forest,49.81,-97.17877,61162,Eastbound,Bridgeland Drive
Westbound Bridgeland at Abbeydale,49.81021,-97.17854,61166,Westbound,Bridgeland Drive
Southbound Chancellor at Lake Albrin,49.81157,-97.17028,60178,Southbound,Chancellor Drive
Westbound Markham at Chancellor West,49.8034,-97.16557,60164,Westbound,Markham Road
Northbound Chancellor at Lake Albrin,49.81159,-97.16996,60177,Northbound,Chancellor Drive
Eastbound Markham at Chancellor West,49.80354,-97.16535,60163,Eastbound,Markham Road
Westbound Markham at Forest Lake,49.8055,-97.16435,60186,Westbound,Markham Road
Southbound Markham at Bison,49.80213,-97.16573,61259,Southbound,Markham Road
Northbound Markham at Bison,49.80244,-97.16538,61268,Northbound,Markham Road
Eastbound Bison at Barnes,49.80166,-97.16584,61265,Eastbound,Bison Drive
Eastbound Markham at Forest Lake,49.80554,-97.16392,60187,Eastbound,Markham Road
Westbound Bison at Markham,49.80185,-97.16526,61266,Westbound,Bison Drive
Northbound Chancellor at Lake Lindero East,49.81222,-97.16808,60179,Northbound,Chancellor Drive
Southbound Chancellor at Swan Lake,49.81244,-97.1676,60678,Southbound,Chancellor Drive
Westbound Markham at Chancellor East,49.80675,-97.16078,60188,Westbound,Markham Road
Northbound Waverley at Abinojii Mikanah,49.8153,-97.17845,60195,Northbound,Waverley Street
Eastbound Markham at Chancellor East,49.80671,-97.16051,60191,Eastbound,Markham Road
Eastbound Bison at Pembina,49.80148,-97.1614,61267,Eastbound,Bison Drive
Southbound Waverley at Abinojii Mikanah,49.81566,-97.17909,60194,Southbound,Waverley Street
Northbound Barnes at Lee,49.7988,-97.16402,61138,Northbound,Barnes Street
Southbound Barnes at Lee,49.79841,-97.16387,61137,Southbound,Barnes Street
Northbound Chancellor at Chancellor,49.81323,-97.163,60182,Northbound,Chancellor Drive
Westbound Markham at Gull Lake,49.80752,-97.1585,60189,Westbound,Markham Road
Southbound Chancellor at Lake Grove East,49.81349,-97.16238,60183,Southbound,Chancellor Drive
Eastbound Markham at Gull Lake,49.80758,-97.15792,60190,Eastbound,Markham Road
Southbound Southwest Transitway at Markham Station,49.80819,-97.15753,61217,Southbound,Southwest Transitway
Northbound Southwest Transitway at Markham Station,49.80868,-97.15739,61216,Northbound,Southwest Transitway
Westbound Markham at Markham Station,49.80816,-97.15659,62016,Westbound,Markham Road
Southbound Pembina at Bison,49.80129,-97.15731,60099,Southbound,Pembina Highway
Eastbound Scurfield at Waverley,49.81815,-97.18022,60962,Eastbound,Scurfield Boulevard
Northbound Pembina at Bison,49.80178,-97.15687,60095,Northbound,Pembina Highway
Westbound Scurfield at Waverley,49.81837,-97.18021,60963,Westbound,Scurfield Boulevard
Southbound Waverley at Scurfield,49.81861,-97.17949,60810,Southbound,Waverley Street
Southbound Pembina at Victoria Hospital,49.80655,-97.15525,60118,Southbound,Pembina Highway
Westbound Chancellor Matheson at Pembina,49.80198,-97.15592,60097,Westbound,Chancellor Matheson Road
Northbound Pembina at Victoria Hospital,49.80604,-97.15509,60120,Northbound,Pembina Highway
Southbound Chancellor at Lake Village,49.8141,-97.15939,60184,Southbound,Chancellor Drive
Northbound Chancellor at Lake Village,49.81401,-97.15923,62081,Northbound,Chancellor Drive
Eastbound Chancellor Matheson at Pembina,49.80178,-97.1555,60096,Eastbound,Chancellor Matheson Road
Westbound Markham at Pembina,49.80876,-97.1547,60124,Westbound,Markham Road
Eastbound Scurfield at Henlow East,49.8182,-97.18549,60886,Eastbound,Scurfield Boulevard
Northbound Waverley at Scurfield,49.81955,-97.1791,60809,Northbound,Waverley Street
Westbound Scurfield at Henlow East,49.81837,-97.18499,60885,Westbound,Scurfield Boulevard
Westbound Southpark at Southpark Station,49.81056,-97.15465,61214,Westbound,Southpark Drive
Southbound Southwest Transitway at Chancellor Station,49.81386,-97.157,61213,Southbound,Southwest Transitway
Northbound Chancellor at Chancellor Station,49.81452,-97.15743,60185,Northbound,Chancellor Drive
Eastbound Southpark at Southpark Station,49.81066,-97.15395,61215,Eastbound,Southpark Drive
Southbound Newmarket at Ballantrae,49.81965,-97.16746,62031,Southbound,Newmarket Boulevard
Northbound Newmarket at Ballantrae,49.81986,-97.16724,62028,Northbound,Newmarket Boulevard
Southbound Pembina at Southpark South,49.81043,-97.15324,60125,Southbound,Pembina Highway
Southbound Pembina at Dalhousie North,49.79581,-97.15753,60736,Southbound,Pembina Highway
Southbound Chancellor at Chancellor Station,49.81496,-97.15655,60137,Southbound,Chancellor Drive
Northbound Pembina at Southpark,49.81074,-97.15266,60126,Northbound,Pembina Highway
Northbound Southwest Transitway at Chancellor Station,49.81561,-97.15671,61212,Northbound,Southwest Transitway
Northbound Chancellor at Gaylene,49.8154,-97.1549,60133,Northbound,Chancellor Drive
Northbound Waverley at Chevrier,49.82234,-97.17912,60196,Northbound,Waverley Street
Southbound Pembina at Thatcher,49.8136,-97.15227,60130,Southbound,Pembina Highway
Northbound Pembina at Thatcher,49.81324,-97.15195,60129,Northbound,Pembina Highway
Southbound Waverley at Chevrier,49.82269,-97.17952,60197,Southbound,Waverley Street
Westbound Chevrier at Gamble,49.82289,-97.17829,61198,Westbound,Chevrier Boulevard
Eastbound Chevrier at Gamble,49.82308,-97.17731,61236,Eastbound,Chevrier Boulevard
Southbound Gamble at Chevrier,49.823,-97.17884,60735,Southbound,Gamble Place
Westbound Dafoe at University,49.80573,-97.13964,61117,Westbound,Dafoe Road
Eastbound Innovation at Research,49.80295,-97.14692,61114,Eastbound,Innovation Drive
Westbound Innovation at Research,49.80299,-97.14713,61119,Westbound,Innovation Drive
Eastbound Dafoe at University,49.80576,-97.13917,61116,Eastbound,Dafoe Road
Northbound University at Chancellor Matheson,49.80716,-97.1396,60103,Northbound,University Crescent
Southbound University at Dysart,49.80856,-97.14126,60107,Southbound,University Crescent
Eastbound Bohemier at University Crescent,49.80938,-97.14281,61218,Eastbound,Bohemier Trail
Westbound Bohemier at University Crescent,49.80964,-97.1424,61255,Westbound,Bohemier Trail
Northbound University at Dysart,49.80969,-97.14162,60108,Northbound,University Crescent
Northbound University at Freedman,49.80485,-97.1377,62067,Northbound,University Crescent
Southbound University at Freedman,49.80418,-97.1377,60672,Southbound,University Crescent
Westbound Dafoe at Agriculture,49.80678,-97.13653,60105,Westbound,Dafoe Road
Eastbound Dafoe at Agriculture,49.80679,-97.13607,61253,Eastbound,Dafoe Road
Southbound University at Markham,49.8116,-97.14545,60110,Southbound,University Crescent
Northbound University at Markham,49.81203,-97.14549,60109,Northbound,University Crescent
Eastbound Freedman at King's Drive,49.80518,-97.13373,60091,Eastbound,Freedman Crescent
Northbound King's at Freedman,49.80527,-97.13327,60090,Northbound,Kings Drive
Westbound Silverstone at Celtic,49.79872,-97.1399,60082,Westbound,Silverstone Avenue
Eastbound Silverstone at Tunis,49.79847,-97.14023,60079,Eastbound,Silverstone Avenue
Westbound Silverstone at Aurora,49.8001,-97.1358,60084,Westbound,Silverstone Avenue
Northbound King's at Pasadena,49.8035,-97.13258,60088,Northbound,Kings Drive
Eastbound Silverstone at Aurora,49.79994,-97.1359,60083,Eastbound,Silverstone Avenue
Southbound King's at Pasadena,49.80304,-97.13263,60087,Southbound,Kings Drive
Westbound Dafoe at U of M Station (BLUE),49.80857,-97.13143,60675,Westbound,Dafoe Road
Westbound Silverstone at King's Drive,49.80138,-97.13204,60085,Westbound,Silverstone Avenue
Eastbound Silverstone at King's Drive,49.80128,-97.1319,60086,Eastbound,Silverstone Avenue
Eastbound Dafoe at U of M Station,49.8086,-97.13072,61254,Eastbound,Dafoe Road
"Westbound Dafoe at U of M Station (F8, 74)",49.80888,-97.13038,60674,Westbound,Dafoe Road
Southbound University at Thatcher,49.81519,-97.1473,60112,Southbound,University Crescent
"Westbound Dafoe at U of M Station (F9, 679, 889)",49.80899,-97.13002,60673,Westbound,Dafoe Road
Northbound University at Thatcher,49.81538,-97.14715,60111,Northbound,University Crescent
"Westbound Dafoe at U of M Station (662, 671, 672)",49.80924,-97.1295,60106,Westbound,Dafoe Road
Southbound University at Wedgewood,49.81695,-97.14908,60113,Southbound,University Crescent
Northbound Chancellor at Pembina,49.81622,-97.15235,60134,Northbound,Chancellor Drive
Southbound Chancellor at Pembina,49.81636,-97.15265,60903,Southbound,Chancellor Drive
Northbound University at Wedgewood,49.81739,-97.14944,60114,Northbound,University Crescent
Eastbound St.Amant Access at St.Amant,49.81593,-97.13268,50604,Eastbound,St.Amant Access
Northbound Pembina at University Crescent,49.81762,-97.15168,60140,Northbound,Pembina Highway
Southbound University at Pembina,49.81783,-97.15115,60139,Southbound,University Crescent
Eastbound Abinojii Mikanah Ramp EB to Pembina at Pembina,49.81776,-97.1526,60010,Eastbound,Abinojii Mikanah Ramp EB to Pembina
Southbound Pembina at University Crescent,49.81791,-97.15222,60138,Southbound,Pembina Highway
Northbound University at Pembina,49.81816,-97.1515,60141,Northbound,University Crescent
Northbound University at Pembina South,49.81841,-97.15153,60911,Northbound,University Crescent
Eastbound St.Amant Access at St.Amant East,49.81659,-97.13157,50096,Eastbound,St.Amant Access
Southbound River at Woodlawn,49.81727,-97.13194,50692,Southbound,River Road
Northbound River at Woodlawn,49.81754,-97.13229,50457,Northbound,River Road
Southbound River at Harry Collins,49.81859,-97.13456,50691,Southbound,River Road
Northbound River at Harry Collins,49.81871,-97.13447,50458,Northbound,River Road
Southbound River at River Pointe,49.82036,-97.13666,50655,Southbound,River Road
Northbound River at Riel,49.82064,-97.1366,50654,Northbound,River Road
Westbound Abinojii Mikanah Ramp WB to Pembina at Pembina,49.82114,-97.15245,60721,Westbound,Abinojii Mikanah Ramp WB to Pembina
Northbound Plaza at Plaza Terminal,49.82198,-97.1476,60916,Northbound,Plaza Drive
Southbound River at Avalon,49.82156,-97.13732,50709,Southbound,River Road
Northbound River at Millfield,49.81795,-97.12708,50455,Northbound,River Road
Southbound River at McNulty East,49.81789,-97.12636,50694,Southbound,River Road
Northbound River at Avalon,49.82198,-97.13738,50714,Northbound,River Road
Eastbound Abinojii Mikanah at River,49.82282,-97.13764,50401,Eastbound,Abinojii Mikanah
Northbound Pembina at Plaza,49.82274,-97.15257,60146,Northbound,Pembina Highway
Southbound Southwest Transitway at Plaza Station,49.82186,-97.15621,61211,Southbound,Southwest Transitway
Westbound Abinojii Mikanah at River,49.82321,-97.1385,50400,Westbound,Abinojii Mikanah
Northbound St Mary's at Warde North,49.80694,-97.11392,50686,Northbound,St Mary's Road
Southbound St Mary's at Warde,49.80537,-97.11499,50192,Southbound,St Mary's Road
Northbound St Mary's at Normand Park,49.80335,-97.11559,50771,Northbound,St Mary's Road
Southbound St Mary's at Normand Park,49.80329,-97.11587,50770,Southbound,St Mary's Road
Westbound Burland at Knotsberry,49.80372,-97.10917,50707,Westbound,Burland Avenue
Eastbound Burland at Knotsberry,49.8034,-97.10931,50704,Eastbound,Burland Avenue
Westbound Burland at Malmsbury,49.80242,-97.11196,50708,Westbound,Burland Avenue
Eastbound Burland at Aldgate,49.80201,-97.113,50703,Eastbound,Burland Avenue
Northbound Aldgate at Burland,49.80192,-97.11263,50988,Northbound,Aldgate Road
Westbound Burland at Healy,49.80517,-97.10697,50706,Westbound,Burland Avenue
Eastbound Burland at Healy,49.80513,-97.10667,50705,Eastbound,Burland Avenue
Westbound Burland at St. Mary's,49.80162,-97.11508,50684,Westbound,Burland Avenue
Eastbound Burland at St. Mary's,49.80156,-97.11483,50737,Eastbound,Burland Avenue
Northbound St Mary's at Normand,49.8101,-97.11284,50594,Northbound,St Mary's Road
Southbound St Mary's at Henteleff Park,49.81024,-97.11313,51001,Southbound,St Mary's Road
Northbound Paddington at Charing Cross,49.80924,-97.10764,50608,Northbound,Paddington Road
Eastbound Burland at Paddington,49.80566,-97.10512,51032,Eastbound,Burland Avenue
Westbound Burland at Paddington,49.80593,-97.10471,50630,Westbound,Burland Avenue
Northbound Aldgate at Becontree,49.80023,-97.11213,50986,Northbound,Aldgate Road
Northbound Paddington at Grimsby,49.81161,-97.10939,50439,Northbound,Paddington Road
Southbound St Mary's at Britannica,49.81235,-97.11252,50591,Southbound,St Mary's Road
Westbound Burland at Chancery,49.80639,-97.1023,50636,Westbound,Burland Avenue
Eastbound Burland at Westbourne,49.80628,-97.10219,50638,Eastbound,Burland Avenue
Northbound St Mary's at Britannica South,49.81284,-97.11204,50592,Northbound,St Mary's Road
Westbound Aldgate at Eastcote,49.79897,-97.10781,50984,Westbound,Aldgate Road
Westbound Burland at Brixton,49.80661,-97.10045,50635,Westbound,Burland Avenue
Eastbound Burland at Southfields,49.80649,-97.10036,50637,Eastbound,Burland Avenue
Northbound Paddington at Alburg,49.81335,-97.10807,50437,Northbound,Paddington Road
Westbound Aldgate at Michaud,49.8,-97.10355,50982,Westbound,Aldgate Road
Southbound John Forsyth at Warde,49.80956,-97.10052,50627,Southbound,John Forsyth Road
Eastbound Britannica at Sandrington,49.81493,-97.10946,50719,Eastbound,Britannica Road
Westbound Aldgate at Cotter,49.80161,-97.09961,50972,Westbound,Aldgate Road
Westbound Burland at John Forsyth,49.80809,-97.09855,50628,Westbound,Burland Avenue
Westbound Britannica at Sandrington,49.81509,-97.10962,50718,Westbound,Britannica Road
Northbound St Mary's at Britannica,49.81541,-97.11216,50590,Northbound,St Mary's Road
Eastbound Burland at John Forsyth,49.80818,-97.09832,50442,Eastbound,Burland Avenue
Southbound Paddington at Tufnell,49.81471,-97.10648,50435,Southbound,Paddington Road
Northbound Paddington at Tufnell,49.81466,-97.10626,50436,Northbound,Paddington Road
Southbound John Forsyth at Ashford,49.8123,-97.10104,50612,Southbound,John Forsyth Road
Southbound St Mary's at Rivergate,49.81612,-97.11261,50589,Southbound,St Mary's Road
Westbound Aldgate at Nault,49.8025,-97.09695,50971,Westbound,Aldgate Road
Southbound Highbury at John Forsyth,49.80784,-97.09613,50798,Southbound,Highbury Road
Southbound John Forsyth at Thornewood,49.81363,-97.10072,50614,Southbound,John Forsyth Road
Northbound Highbury at John Forsyth,49.80796,-97.0959,50805,Northbound,Highbury Road
Northbound Paddington at Maitland,49.81529,-97.10295,50433,Northbound,Paddington Road
Southbound Paddington at Whicker,49.8154,-97.1026,50434,Southbound,Paddington Road
Westbound Aldgate at Highbury,49.80355,-97.09479,50803,Westbound,Aldgate Road
Southbound John Forsyth at Paddington,49.81496,-97.10091,50817,Southbound,John Forsyth Road
Northbound St Mary's at Vista South,49.81781,-97.11261,50588,Northbound,St Mary's Road
Eastbound Aldgate at Highbury,49.80358,-97.09444,50800,Eastbound,Aldgate Road
Southbound St Mary's at River South,49.818,-97.11299,50587,Southbound,St Mary's Road
Eastbound John Forsyth at Glenham,49.8082,-97.09371,50827,Eastbound,John Forsyth Road
Westbound John Forsyth at Glenham,49.80845,-97.09363,50828,Westbound,John Forsyth Road
Eastbound Aldgate at Cummings,49.80435,-97.09314,50801,Eastbound,Aldgate Road
Westbound Aldgate at Wycombe,49.80465,-97.09298,50802,Westbound,Aldgate Road
Southbound Dakota at Warde,49.81093,-97.0941,50421,Southbound,Dakota Street
Northbound Dakota at Warde,49.81147,-97.09423,50806,Northbound,Dakota Street
Northbound Dakota at John Forsyth,49.80925,-97.09253,51105,Northbound,Dakota Street
Southbound Dakota at John Forsyth,49.80817,-97.09211,51106,Southbound,Dakota Street
Southbound River at Minnetonka,49.81806,-97.12226,50695,Southbound,River Road
Southbound Dakota at Southglen,49.81566,-97.0979,51011,Southbound,Dakota Street
Northbound River at Minnetonka,49.81818,-97.1225,50701,Northbound,River Road
Westbound John Forsyth at Dakota,49.80919,-97.0919,50931,Westbound,John Forsyth Road
Eastbound John Forsyth at Dakota,49.80903,-97.09167,50932,Eastbound,John Forsyth Road
Northbound Dakota at Southglen,49.81611,-97.0979,51010,Northbound,Dakota Street
Northbound St Mary's at Vista (Park & Ride),49.82,-97.11307,50586,Northbound,St Mary's Road
Eastbound Southglen at Dakota East,49.81599,-97.09724,50867,Eastbound,Southglen Boulevard
Westbound Southglen at Dakota East,49.81613,-97.09725,50864,Westbound,Southglen Boulevard
Westbound Aldgate at Dakota,49.80547,-97.09026,50430,Westbound,Aldgate Road
Southbound St Mary's at River,49.82047,-97.11345,50585,Southbound,St Mary's Road
Westbound John Forsyth at Baisinger,49.81006,-97.08939,50934,Westbound,John Forsyth Road
Eastbound John Forsyth at Baisinger,49.80998,-97.08922,50933,Eastbound,John Forsyth Road
Westbound Aldgate at Everingham,49.80573,-97.08826,50429,Westbound,Aldgate Road
Southbound Dakota at Dakota Community Club,49.81907,-97.0994,50191,Southbound,Dakota Street
Northbound Dakota at Dakota Community Club,49.81939,-97.09898,50190,Northbound,Dakota Street
Southbound Minnetonka at Woodlawn,49.82062,-97.12376,50452,Southbound,Minnetonka Street
Northbound Minnetonka at Riverbend,49.82087,-97.12375,50702,Northbound,Minnetonka Street
Westbound Southglen at Amersham,49.81726,-97.09392,50862,Westbound,Southglen Boulevard
Eastbound Southglen at Amersham,49.81718,-97.09376,50863,Eastbound,Southglen Boulevard
Northbound St Mary's at Greenwood,49.82297,-97.11369,50584,Northbound,St Mary's Road
Southbound St Mary's at Greendell,49.82299,-97.11394,50583,Southbound,St Mary's Road
Westbound Aldgate at Clerkenwell,49.80568,-97.08584,50610,Westbound,Aldgate Road
Westbound John Forsyth at Everden,49.81045,-97.08647,50936,Westbound,John Forsyth Road
Eastbound John Forsyth at Everden,49.81029,-97.08635,50935,Eastbound,John Forsyth Road
Northbound Dakota at Hyatt,49.82122,-97.0992,50496,Northbound,Dakota Street
Southbound Dakota at Hyatt,49.82141,-97.09972,50504,Southbound,Dakota Street
Westbound Aldgate at Keelegate,49.80622,-97.08354,50945,Westbound,Aldgate Road
Westbound Aldgate at Kamberwell West,49.80836,-97.07968,50956,Westbound,Aldgate Road
Eastbound John Forsyth at Ashworth,49.81024,-97.08292,50937,Eastbound,John Forsyth Road
Westbound John Forsyth at Ashworth,49.81032,-97.08303,50938,Westbound,John Forsyth Road
Eastbound John Forsyth at Aldgate,49.81108,-97.07965,50957,Eastbound,John Forsyth Road
Westbound John Forsyth at Aldgate,49.81119,-97.07948,51078,Westbound,John Forsyth Road
Southbound Ashworth at Gablehurst,49.81174,-97.08368,50954,Southbound,Ashworth Street
Northbound Ashworth at Julia,49.81188,-97.0836,50953,Northbound,Ashworth Street
Westbound Aldgate at Abbotsfield,49.81287,-97.0777,50946,Westbound,Aldgate Road
Southbound Creek Bend at Creek Bend,49.81026,-97.07189,57009,Southbound,Creek Bend Road
Northbound Creek Bend at St. Anne's,49.8104,-97.07182,51012,Northbound,Creek Bend Road
Southbound St Anne's at Aldgate,49.81267,-97.07532,50997,Southbound,St Anne's Road
Southbound Ashworth at Coombs,49.81344,-97.08545,50944,Southbound,Ashworth Street
Northbound St Anne's at Aldgate,49.8128,-97.07514,50996,Northbound,St Anne's Road
Northbound Ashworth at Coombs,49.81356,-97.08535,50943,Northbound,Ashworth Street
Southbound Ashworth at Barlow,49.81582,-97.08761,50818,Southbound,Ashworth Street
Northbound Ashworth at Eastmount,49.816,-97.08749,50819,Northbound,Ashworth Street
Northbound St Anne's at Warde,49.8179,-97.08002,50966,Northbound,St Anne's Road
Southbound St Anne's at Warde,49.81816,-97.0805,50960,Southbound,St Anne's Road
Eastbound Southglen at Ashworth,49.81844,-97.08876,50780,Eastbound,Southglen Boulevard
Westbound Southglen at Ashworth,49.81849,-97.08901,50778,Westbound,Southglen Boulevard
Eastbound Southglen at Simon,49.81951,-97.08573,50781,Eastbound,Southglen Boulevard
Westbound Southglen at Sundial,49.81953,-97.08605,50777,Westbound,Southglen Boulevard
Southbound St Anne's at Southglen,49.82104,-97.08197,50774,Southbound,St Anne's Road
Northbound St Anne's at Southglen,49.82113,-97.08173,50814,Northbound,St Anne's Road
Eastbound Southglen at Sauve,49.82155,-97.08288,50782,Eastbound,Southglen Boulevard
Westbound Southglen at Sauve,49.82167,-97.08292,50776,Westbound,Southglen Boulevard
Northbound Shorehill at Westwater West,49.82283,-97.07575,50948,Northbound,Shorehill Drive
Eastbound Compark at Ashworth,49.823,-97.08822,50682,Eastbound,Compark Road
Southbound Shorehill at Westwater West,49.82317,-97.07561,50949,Southbound,Shorehill Drive
Westbound Robert Bockstael at Butterfly,49.82155,-97.04257,51045,Westbound,Robert Bockstael Drive
Westbound Jack Reimer at De La Seigneurie,49.82271,-97.05454,51065,Westbound,Jack Reimer Drive
Northbound De La Seigneurie at Jack Reimer,49.82293,-97.05398,51057,Northbound,De La Seigneurie Boulevard
Eastbound Jack Reimer at Eau-Claire,49.82242,-97.05851,51056,Eastbound,Jack Reimer Drive
Westbound Jack Reimer at Eau-Claire,49.8225,-97.05868,51066,Westbound,Jack Reimer Drive
Northbound Des Hivernants at Butterfly,49.8234,-97.04535,51047,Northbound,Des Hivernants Boulevard
Eastbound Ridgewood at Elmhurst,49.84479,-97.2581,61071,Eastbound,Ridgewood Avenue
Westbound Ridgewood at Elmhurst,49.8449,-97.2581,60648,Westbound,Ridgewood Avenue
Southbound Seasons of Tuxedo at Seasons of Tuxedo,49.83975,-97.22111,61257,Southbound,Seasons of Tuxedo Road
Southbound Seasons of Tuxedo at Sterling Lyon South,49.84144,-97.21958,62072,Southbound,Seasons of Tuxedo Road
Southbound Shaftesbury at Shaftesbury Park,49.84699,-97.23156,62071,Southbound,Shaftesbury Boulevard
Northbound Shaftesbury at Shaftesbury Park,49.847,-97.23137,62166,Northbound,Shaftesbury Boulevard
Eastbound Tuxedo Business Park at Commerce,49.83168,-97.21284,61049,Eastbound,Tuxedo Business Park Loop
Southbound Outlet Collection at Sterling Lyon,49.843,-97.21866,62068,Southbound,Outlet Collection Road
Northbound Seasons of Tuxedo at Ikea,49.83953,-97.21395,61189,Northbound,Seasons of Tuxedo Road
Northbound Kenaston at Rothwell,49.83204,-97.20943,61262,Northbound,Kenaston Boulevard
Southbound Kenaston at Commerce,49.83233,-97.20981,61261,Southbound,Kenaston Boulevard
Southbound Lindenwood at Deer Run,49.83181,-97.19845,60941,Southbound,Lindenwood Drive
Northbound Lindenwood at Kenaston,49.82607,-97.20421,62059,Northbound,Lindenwood Drive
Southbound Lindenwood at Kenaston,49.82644,-97.20285,61007,Southbound,Lindenwood Drive
Southbound Lindenwood at Lindenshore,49.82932,-97.19886,60714,Southbound,Lindenwood Drive
Northbound Lindenwood at Deer Run,49.83178,-97.19826,60940,Northbound,Lindenwood Drive
Northbound Lindenwood at Lindenshore,49.82952,-97.1987,60713,Northbound,Lindenwood Drive
Northbound Columbia Drive at Kenaston,49.82527,-97.20558,61153,Northbound,Kenaston Common Drive
Southbound Lindenwood at Lindenwood Terrace,49.82709,-97.19952,61134,Southbound,Lindenwood Drive
Northbound Lindenwood at Lindenwood Terrace,49.82687,-97.19951,61135,Northbound,Lindenwood Drive
Southbound Kenaston Common at Kenaston,49.82461,-97.2066,61239,Southbound,Kenaston Common Drive
Southbound Lindenwood at Marksbridge,49.83437,-97.19736,60878,Southbound,Lindenwood Drive
Northbound Lindenwood at Lindenwood,49.82775,-97.1978,61192,Northbound,Lindenwood Drive
Southbound Lindenwood at Lindenwood East,49.8275,-97.19794,61286,Southbound,Lindenwood Drive
Southbound Lindenwood East Access at Safeway,49.82473,-97.20226,61009,Southbound,Lindenwood East Access Road
Northbound Kenaston at Safeway,49.82479,-97.2019,60707,Northbound,Kenaston Boulevard
Southbound Lindenwood at Lindenwood West,49.8276,-97.19712,60711,Southbound,Lindenwood Drive
Northbound Lindenwood at Marksbridge,49.83535,-97.19704,60988,Northbound,Lindenwood Drive
Northbound Lindenwood at Lindenwood West,49.82759,-97.19673,60710,Northbound,Lindenwood Drive
Southbound Lindenwood at Wethersfield,49.8284,-97.19473,60906,Southbound,Lindenwood Drive
Northbound Lindenwood at Wethersfield,49.82831,-97.1946,60905,Northbound,Lindenwood Drive
Southbound Lindenwood at Fairhaven,49.82572,-97.19649,60908,Southbound,Lindenwood Drive
Southbound Kenaston at Sterling Lyon,49.8405,-97.20909,62058,Southbound,Kenaston Boulevard
Northbound Lindenwood at Brentcliffe,49.83798,-97.19685,60504,Northbound,Lindenwood Drive
Southbound Lindenwood at Brentcliffe,49.8383,-97.197,60142,Southbound,Lindenwood Drive
Northbound Lindenwood at Fairhaven,49.82525,-97.19573,60909,Northbound,Lindenwood Drive
Eastbound Sterling Lyon at Kenaston,49.84143,-97.20922,62077,Eastbound,Sterling Lyon Parkway
Southbound Lindenwood at Farmingdale,49.82943,-97.19164,60887,Southbound,Lindenwood Drive
Northbound Lindenwood at Farmingdale,49.82927,-97.19169,60888,Northbound,Lindenwood Drive
Westbound Sterling Lyon at Kenaston,49.8418,-97.20833,62082,Westbound,Sterling Lyon Parkway
Northbound Kenaston at Sterling Lyon,49.84202,-97.20855,62057,Northbound,Kenaston Boulevard
Southbound Lindenwood at Tweedsmuir,49.83997,-97.19567,60136,Southbound,Lindenwood Drive
Northbound Lindenwood at Tweedsmuir,49.84005,-97.19495,60511,Northbound,Lindenwood Drive
Northbound Outlet Collection at Sterling Lyon,49.84246,-97.21354,62073,Northbound,Outlet Collection Road
Southbound Lindenwood at Waterbury South,49.82987,-97.18829,60881,Southbound,Lindenwood Drive
Northbound Lindenwood at Waterbury South,49.82974,-97.18822,60867,Northbound,Lindenwood Drive
Southbound Lorimer at Sterling Lyon,49.84315,-97.20085,60007,Southbound,Lorimer Boulevard
Southbound Dovercourt at Falcon Ridge,49.82232,-97.19373,61121,Southbound,Dovercourt Drive
Northbound Lorimer at Sterling Lyon,49.84331,-97.20072,60008,Northbound,Lorimer Boulevard
Northbound Dovercourt at Falcon Ridge,49.82241,-97.19343,61124,Northbound,Dovercourt Drive
Northbound Lindenwood at Wellesley,49.84173,-97.19199,61002,Northbound,Lindenwood Drive
Southbound Lindenwood at Wellesley,49.84187,-97.19204,61001,Southbound,Lindenwood Drive
Southbound Lindenwood at Foxmeadow,49.83113,-97.1849,60880,Southbound,Lindenwood Drive
Northbound Lindenwood at Foxmeadow,49.83115,-97.1847,60868,Northbound,Lindenwood Drive
Northbound Linden Ridge at Falcon Ridge,49.82436,-97.18737,61148,Northbound,Linden Ridge Drive
Southbound Lindenwood at Waterbury North,49.83259,-97.18447,60879,Southbound,Lindenwood Drive
Southbound Linden Ridge at Falcon Ridge,49.82408,-97.18732,61147,Southbound,Linden Ridge Drive
Northbound Lindenwood at Waterbury North,49.83282,-97.18417,60869,Northbound,Lindenwood Drive
Southbound Lindenwood at Thorncliff,49.83447,-97.18393,60817,Southbound,Lindenwood Drive
Northbound Outlet Collection at Outlet Collection,49.8454,-97.21724,60995,Northbound,Outlet Collection Road
Northbound Outlet Collection at Outlet Collection,49.84549,-97.21725,61256,Northbound,Outlet Collection Road
Northbound Lindenwood at Thorncliff,49.83457,-97.18366,60870,Northbound,Lindenwood Drive
Southbound Lorimer at Wilkes,49.84649,-97.20058,60005,Southbound,Lorimer Boulevard
Northbound Lorimer at Wilkes,49.84659,-97.20042,60006,Northbound,Lorimer Boulevard
Southbound Lindenwood at Kingsborough,49.84266,-97.18966,60135,Southbound,Lindenwood Drive
Northbound Lindenwood at Kingsborough,49.84257,-97.1894,60635,Northbound,Lindenwood Drive
Southbound Lindenwood at Shorecrest,49.83666,-97.18321,60816,Southbound,Lindenwood Drive
Northbound Lindenwood at Shorecrest,49.83646,-97.18299,60871,Northbound,Lindenwood Drive
Southbound Waverley at Hennessey,49.83388,-97.18082,60207,Southbound,Waverley Street
Northbound Waverley at Buffalo,49.83318,-97.1806,60208,Northbound,Waverley Street
Eastbound Wilkes at Carpenter,49.84684,-97.19468,60004,Eastbound,Wilkes Avenue
Southbound Waverley at McGillivray,49.82968,-97.18023,60204,Southbound,Waverley Street
Westbound Buffalo at Waverley,49.83361,-97.18004,60209,Westbound,Buffalo Place
Northbound Waverley at McGillivray,49.83015,-97.17988,60205,Northbound,Waverley Street
Westbound Wilkes at Carpenter,49.84696,-97.19401,60015,Westbound,Wilkes Avenue
Southbound Avon at Lindenwood West,49.84223,-97.1853,60813,Southbound,Avon Gate
Northbound Avon at Lindenwood West,49.84216,-97.18513,60874,Northbound,Avon Gate
Westbound Clarence at MCI,49.82871,-97.17418,60778,Westbound,Clarence Avenue
Eastbound Buffalo at Beaver,49.83437,-97.17656,61093,Eastbound,Buffalo Place
Eastbound Clarence at MCI,49.8286,-97.17407,60201,Eastbound,Clarence Avenue
Westbound Clarence at Hamelin West,49.82932,-97.17236,60777,Westbound,Clarence Avenue
Westbound Buffalo at Beaver,49.83444,-97.17677,60218,Westbound,Buffalo Place
Eastbound Clarence at Hamelin West,49.82933,-97.17191,60202,Eastbound,Clarence Avenue
Eastbound Clarence at Waverley East,49.82776,-97.17658,60992,Eastbound,Clarence Avenue
Southbound Hamelin at Sony,49.83429,-97.17185,60775,Southbound,Hamelin Street
Westbound Clarence at Waverley East,49.82773,-97.1772,60993,Westbound,Clarence Avenue
Northbound Hamelin at Sony,49.83446,-97.17179,60206,Northbound,Hamelin Street
Westbound Clarence at Hamelin,49.8304,-97.16916,60776,Westbound,Clarence Avenue
Eastbound Buffalo at Otter,49.8355,-97.17324,61094,Eastbound,Buffalo Place
Westbound Buffalo at Otter,49.83559,-97.17342,60219,Westbound,Buffalo Place
Eastbound Clarence at Hamelin,49.83034,-97.16891,60203,Eastbound,Clarence Avenue
Northbound Waverley at Buffalo North,49.83571,-97.1796,60211,Northbound,Waverley Street
Northbound Waverley at Clarence,49.82696,-97.1794,60199,Northbound,Waverley Street
Northbound Hamelin at Clarence,49.82982,-97.16802,61280,Northbound,Hamelin Street
Southbound Waverley at Clarence,49.82684,-97.1798,60198,Southbound,Waverley Street
Southbound Waverley at Lindenwood South,49.8361,-97.17993,60210,Southbound,Waverley Street
Westbound Chevrier at Hamelin,49.82583,-97.16957,61197,Westbound,Chevrier Boulevard
Southbound Irene at Sony,49.8361,-97.1679,60003,Southbound,Irene Street
Northbound Irene at Sony,49.83609,-97.16768,60002,Northbound,Irene Street
Eastbound Chevrier at Hamelin,49.82575,-97.16937,61237,Eastbound,Chevrier Boulevard
Southbound Irene at Clarence,49.83233,-97.16485,60785,Southbound,Irene Street
Northbound Irene at Clarence,49.83243,-97.16472,60773,Northbound,Irene Street
Eastbound Clarence at Irene,49.83183,-97.16451,60823,Eastbound,Clarence Avenue
Northbound Newmarket at Chevrier,49.82441,-97.17248,62029,Northbound,Newmarket Boulevard
Southbound Fennell at Buffalo,49.83728,-97.16888,60822,Southbound,Fennell Street
Southbound Newmarket at Chevrier,49.82425,-97.17257,62030,Southbound,Newmarket Boulevard
Eastbound Seel at Waverley East,49.83869,-97.17846,61288,Eastbound,Seel Avenue
Southbound Otter at Seel,49.83904,-97.17537,60831,Southbound,Otter Street
Westbound Seel at Waverley,49.8388,-97.17878,61293,Westbound,Seel Avenue
Northbound Fennell at Buffalo,49.83776,-97.16904,60820,Northbound,Fennell Street
Northbound Otter at Seel,49.83921,-97.1753,61096,Northbound,Otter Street
Westbound Chevrier at Hamelin East,49.82715,-97.16564,60994,Westbound,Chevrier Boulevard
Eastbound Lindenwood at Waverley,49.83865,-97.18053,61287,Eastbound,Lindenwood Place
Eastbound Chevrier at Trottier,49.82706,-97.16551,61238,Eastbound,Chevrier Boulevard
Westbound Lindenwood at Waverley West,49.83888,-97.18105,61294,Westbound,Lindenwood Place
Eastbound Seel at Otter,49.83985,-97.17456,61289,Eastbound,Seel Avenue
Westbound Clarence at Clarence Station,49.83265,-97.1625,60772,Westbound,Clarence Avenue
Westbound Chevrier at Trottier,49.82799,-97.16316,60976,Westbound,Chevrier Boulevard
Eastbound Chevrier at Trottier East,49.82796,-97.16286,60969,Eastbound,Chevrier Boulevard
Northbound Southwest Transitway at Clarence Station,49.83451,-97.16228,61206,Northbound,Southwest Transitway
Westbound Seel at Fennell,49.84049,-97.17308,61291,Westbound,Seel Avenue
Southbound Southwest Transitway at Clarence Station,49.83369,-97.16179,61207,Southbound,Southwest Transitway
Eastbound Clarence at Clarence Station,49.83292,-97.16131,60786,Eastbound,Clarence Avenue
Southbound Fennell at Seel,49.84059,-97.17153,60821,Southbound,Fennell Street
Southbound Waverley at Willson,49.84073,-97.17969,60215,Southbound,Waverley Street
Northbound Fennell at Seel,49.84074,-97.17143,60819,Northbound,Fennell Street
Southbound Otter at Willson,49.84114,-97.17706,60693,Southbound,Otter Street
Northbound Waverley at Willson,49.84096,-97.17922,60214,Northbound,Waverley Street
Northbound Otter at Willson,49.84136,-97.17701,61097,Northbound,Otter Street
Westbound Chevrier at Chevrier Station,49.82929,-97.15933,60975,Westbound,Chevrier Boulevard
Northbound Southwest Transitway at Chevrier Station,49.83053,-97.15898,61208,Northbound,Southwest Transitway
Southbound Southwest Transitway at Chevrier Station,49.82999,-97.15874,61209,Southbound,Southwest Transitway
Eastbound Clarence at Donnelly,49.83382,-97.15865,60787,Eastbound,Clarence Avenue
Northbound Waverley at Victor Lewis,49.8425,-97.17922,60835,Northbound,Waverley Street
Eastbound Chevrier at Chevrier Station,49.82946,-97.15844,60970,Eastbound,Chevrier Boulevard
Southbound Fennell at Willson,49.84278,-97.1733,61091,Southbound,Fennell Street
Northbound Fennell at Willson,49.84293,-97.1732,61090,Northbound,Fennell Street
Southbound Waverley at Victor Lewis,49.84282,-97.1797,60836,Southbound,Waverley Street
Southbound Southwest Transitway at Seel Station,49.84226,-97.1687,61205,Southbound,Southwest Transitway
Northbound Seel Station at Seel Station,49.84238,-97.16892,62017,Northbound,Seel Station Terminal
Northbound Seel Station at Seel Station,49.84258,-97.16909,61279,Northbound,Seel Station Terminal
Northbound Seel Station at Seel Station,49.84283,-97.16928,61278,Northbound,Seel Station Terminal
Northbound Seel Station at Seel Station,49.843,-97.16941,61277,Northbound,Seel Station Terminal
Northbound Southwest Transitway at Seel Station,49.8431,-97.1692,61204,Northbound,Southwest Transitway
Westbound Chevrier at Hudson,49.83065,-97.15532,60974,Westbound,Chevrier Boulevard
Eastbound Victor Lewis at Avon Gate,49.84374,-97.18375,60732,Eastbound,Victor Lewis Drive
Eastbound Chevrier at Hudson,49.83063,-97.15494,60971,Eastbound,Chevrier Boulevard
Westbound Victor Lewis at Avon Gate,49.84396,-97.18362,60733,Westbound,Victor Lewis Drive
Eastbound Clarence at Hudson,49.8354,-97.15397,60788,Eastbound,Clarence Avenue
Southbound Beaumont at Riverwood,49.84101,-97.15836,60223,Southbound,Beaumont Street
Northbound Beaumont at Riverwood,49.84094,-97.1581,60222,Northbound,Beaumont Street
Southbound Waverley at Wilkes,49.84632,-97.17961,62043,Southbound,Waverley Street
Southbound Beaumont at Waterford,49.84262,-97.15965,60225,Southbound,Beaumont Street
Eastbound Victor Lewis at Sterling Lyon,49.84525,-97.18586,60731,Eastbound,Victor Lewis Drive
Northbound Beaumont at Waterford,49.84256,-97.15938,60224,Northbound,Beaumont Street
Westbound Victor Lewis at Sterling Lyon,49.84539,-97.18564,60734,Westbound,Victor Lewis Drive
Northbound Waverley at Wilkes,49.84665,-97.17908,60216,Northbound,Waverley Street
Eastbound Chevrier at Pembina West,49.83164,-97.15191,60972,Eastbound,Chevrier Boulevard
Eastbound Hurst at Waverley East,49.84676,-97.1785,61283,Eastbound,Hurst Way
Southbound Pembina at Manahan,49.8288,-97.15216,60154,Southbound,Pembina Highway
Northbound Southwest Transitway at Plaza Station,49.82238,-97.15601,61210,Northbound,Southwest Transitway
Westbound Chevrier at Pembina West,49.83191,-97.15151,60973,Westbound,Chevrier Boulevard
Westbound Hurst at Waverley East,49.847,-97.17889,61284,Westbound,Hurst Way
Northbound Pembina at Manahan,49.82938,-97.15153,60153,Northbound,Pembina Highway
Eastbound Wilkes at Waverley West,49.84676,-97.18162,60729,Eastbound,Wilkes Avenue
Northbound Beaumont at Mars,49.84378,-97.1604,60227,Northbound,Beaumont Street
Southbound Beaumont at Mars,49.84409,-97.16084,60228,Southbound,Beaumont Street
Southbound Pembina at Chevrier,49.83256,-97.15099,60155,Southbound,Pembina Highway
Northbound Pembina at Chevrier,49.83185,-97.15075,60156,Northbound,Pembina Highway
Westbound Wilkes at Waverley West,49.84707,-97.18204,60728,Westbound,Wilkes Avenue
Southbound Pembina at Adamar,49.82433,-97.15307,60148,Southbound,Pembina Highway
Westbound Crescent at Pembina East,49.83226,-97.1505,60982,Westbound,Crescent Drive
Eastbound Crescent at Pembina East,49.83216,-97.15035,60978,Eastbound,Crescent Drive
Southbound Beaumont at Windermere,49.84526,-97.16181,61272,Southbound,Beaumont Street
Southbound Pembina at Royse,49.83455,-97.15052,60718,Southbound,Pembina Highway
Westbound Windermere at Beaumont,49.84529,-97.16146,60231,Westbound,Windermere Avenue
Northbound Pembina at Adamar,49.82403,-97.15265,60147,Northbound,Pembina Highway
Eastbound Clarence at Pembina,49.83638,-97.151,60789,Eastbound,Clarence Avenue
Southbound Pembina at Clarence,49.83668,-97.15105,60239,Southbound,Pembina Highway
Southbound Pembina at Plaza,49.82299,-97.15306,60144,Southbound,Pembina Highway
Northbound Pembina at Fletcher,49.83632,-97.1505,60240,Northbound,Pembina Highway
Southbound Pembina at Waller,49.83931,-97.15211,60243,Southbound,Pembina Highway
Eastbound Wilkes at Brockville East,49.84667,-97.18806,61101,Eastbound,Wilkes Avenue
Southbound Pembina at McGillivray,49.84074,-97.15324,60246,Southbound,Pembina Highway
Westbound Plaza at Pembina,49.82322,-97.15194,60919,Westbound,Plaza Drive
Northbound Pembina at Waller,49.83954,-97.15177,60242,Northbound,Pembina Highway
Southbound Beaumont at Rosemount,49.84711,-97.16326,61271,Southbound,Beaumont Street
Westbound Wilkes at Brockville,49.847,-97.18854,61100,Westbound,Wilkes Avenue
Northbound Pembina at Oakenwald,49.84134,-97.15313,60245,Northbound,Pembina Highway
Eastbound Plaza at Pembina,49.82318,-97.15147,60914,Eastbound,Plaza Drive
Northbound Beaumont at Rosemount,49.8473,-97.16322,61270,Northbound,Beaumont Street
Eastbound Crescent at Kebir,49.83352,-97.14635,60979,Eastbound,Crescent Drive
Westbound Crescent at Kebir,49.83372,-97.14577,60981,Westbound,Crescent Drive
Southbound South at Crescent,49.83368,-97.14177,60989,Southbound,South Drive
Northbound South Drive at Crescent Drive,49.83377,-97.1416,60980,Northbound,South Drive
Southbound River at Kilmarnock South,49.82801,-97.13655,50396,Southbound,River Road
Northbound River at Kilmarnock South,49.82807,-97.13625,50397,Northbound,River Road
Southbound River at Kilmarnock,49.82909,-97.13425,50394,Southbound,River Road
Southbound River at St. Michael,49.82583,-97.13791,50398,Southbound,River Road
Southbound South at Crane,49.83828,-97.14113,60986,Southbound,South Drive
Northbound River at St. Michael,49.82537,-97.13797,50399,Northbound,River Road
Northbound River at Kilmarnock,49.82937,-97.13308,50395,Northbound,River Road
Northbound South at Crane,49.83887,-97.1409,60985,Northbound,South Drive
Southbound River at Abinojii Mikanah,49.82434,-97.13865,50500,Southbound,River Road
Southbound River at Falconer,49.82992,-97.13193,50392,Southbound,River Road
Westbound Plaza at Plaza West,49.82385,-97.14976,60918,Westbound,Plaza Drive
Eastbound Plaza at Plaza East,49.82374,-97.14974,60926,Eastbound,Plaza Drive
Northbound River at Falconer,49.83019,-97.13089,50393,Northbound,River Road
Northbound River at Abinojii Mikanah,49.82345,-97.1382,50736,Northbound,River Road
Southbound River at Parkville,49.83158,-97.12917,50390,Southbound,River Road
Northbound River at Parkville,49.83151,-97.129,50391,Northbound,River Road
Eastbound South at Dowker,49.8413,-97.14056,60794,Eastbound,South Drive
Westbound South at Dowker,49.84173,-97.14061,60764,Westbound,South Drive
Southbound River at St. Vital,49.83639,-97.12927,50606,Southbound,River Road
Southbound River at Moore,49.83492,-97.1283,50607,Southbound,River Road
Northbound River at Moore,49.83477,-97.12806,50389,Northbound,River Road
Eastbound St Vital at River,49.83681,-97.12902,50605,Eastbound,St Vital Road
Westbound St Vital at Victoria,49.8376,-97.12718,50388,Westbound,St Vital Road
Eastbound St Vital at Victoria,49.83752,-97.12703,50387,Eastbound,St Vital Road
Eastbound South at Point Road,49.84452,-97.13683,60795,Eastbound,South Drive
Westbound South at Point Road,49.84466,-97.13677,60763,Westbound,South Drive
Eastbound St Vital at Salme,49.8384,-97.12444,50385,Eastbound,St Vital Road
Northbound Pembina at North Drive,49.84523,-97.15291,60250,Northbound,Pembina Highway
Westbound Riel at Minnetonka,49.82288,-97.12544,50450,Westbound,Riel Avenue
Westbound St Vital at Salme,49.83867,-97.12408,50386,Westbound,St Vital Road
Eastbound Point at Riverwood,49.84632,-97.14181,60267,Eastbound,Point Road
Westbound Point at Oakenwald,49.84624,-97.14058,60666,Westbound,Point Road
Eastbound Riel at Minnetonka,49.82284,-97.12518,50451,Eastbound,Riel Avenue
Southbound Pembina at North Drive,49.84566,-97.15335,60249,Southbound,Pembina Highway
Eastbound Point at Waterford,49.84683,-97.14473,60265,Eastbound,Point Road
Westbound Point at Waterford,49.84701,-97.14501,60266,Westbound,Point Road
Westbound Riel at Metz,49.82366,-97.12319,50449,Westbound,Riel Avenue
Westbound Abinojii Mikanah at Glen Meadow,49.82913,-97.11979,50602,Westbound,Abinojii Mikanah
Eastbound Riel at Metz,49.82378,-97.12243,50448,Eastbound,Riel Avenue
Eastbound Abinojii Mikanah at Glen Meadow,49.82882,-97.11954,50603,Eastbound,Abinojii Mikanah
Eastbound South at Wildwood H,49.84521,-97.13071,60797,Eastbound,South Drive
Westbound South at Wildwood H,49.8453,-97.13074,60280,Westbound,South Drive
Eastbound Point at Somerset,49.84766,-97.14947,60262,Eastbound,Point Road
Westbound St Vital at Pulberry,49.83944,-97.12184,50383,Westbound,St Vital Road
Eastbound St Vital at Pulberry,49.83933,-97.12173,50384,Eastbound,St Vital Road
Westbound Point at Somerset,49.84778,-97.14942,60261,Westbound,Point Road
Eastbound South at Wildwood J,49.8443,-97.12777,60799,Eastbound,South Drive
Eastbound Oakenwald at Wildwood St,49.84738,-97.13553,60271,Eastbound,Oakenwald Avenue
Westbound South at Wildwood J,49.84391,-97.12656,60667,Westbound,South Drive
Westbound Riel at Darwin,49.82475,-97.12002,50446,Westbound,Riel Avenue
Westbound Oakenwald at Wildwood,49.84753,-97.13546,60283,Westbound,Oakenwald Avenue
Eastbound Riel at Darwin,49.82467,-97.11988,50447,Eastbound,Riel Avenue
Eastbound Windermere at Derek,49.84662,-97.15709,60235,Eastbound,Windermere Avenue
Eastbound Point at Pembina East,49.84809,-97.15211,60254,Eastbound,Point Road
Westbound Windermere at Derek,49.84655,-97.15765,60234,Westbound,Windermere Avenue
Southbound Pembina at Windermere,49.84789,-97.15314,60251,Southbound,Pembina Highway
Northbound Pembina at Point Road,49.84803,-97.15265,60253,Northbound,Pembina Highway
Eastbound Windermere at Pembina West,49.84799,-97.15313,60252,Eastbound,Windermere Avenue
Westbound Windermere at Pembina West,49.84801,-97.15339,60255,Westbound,Windermere Avenue
Westbound Windermere at Windermere Terminal,49.84799,-97.15385,60655,Westbound,Windermere Avenue
Westbound Point at Pembina East,49.84828,-97.15267,60256,Westbound,Point Road
Eastbound Abinojii Mikanah at St. Mary's,49.83051,-97.11461,50403,Eastbound,Abinojii Mikanah
Northbound St Mary's at Abinojii Mikanah,49.83035,-97.11482,50575,Northbound,St Mary's Road
Southbound St Mary's at Abinojii Mikanah,49.83077,-97.11525,50574,Southbound,St Mary's Road
Westbound Abinojii Mikanah at St. Mary's,49.83055,-97.11563,50402,Westbound,Abinojii Mikanah
Westbound Abinojii Mikanah at Dakota,49.83275,-97.1093,50404,Westbound,Abinojii Mikanah
Northbound Avalon at Avalon Loop,49.82934,-97.11542,51034,Northbound,Avalon Bus Loop
Southbound Dakota at Abinojii Mikanah,49.83282,-97.10915,50485,Southbound,Dakota Street
Northbound Dakota at Abinojii Mikanah,49.83261,-97.1086,50486,Northbound,Dakota Street
Eastbound Abinojii Mikanah at Dakota,49.83269,-97.10842,50405,Eastbound,Abinojii Mikanah
Southbound Dakota at Beliveau,49.83447,-97.11046,50484,Southbound,Dakota Street
Southbound St Mary's at Arden,49.83502,-97.11357,50571,Southbound,St Mary's Road
Northbound Dakota at Beliveau,49.83514,-97.11073,50483,Northbound,Dakota Street
Northbound St Mary's at Riel North (St. Vital Centre),49.82742,-97.11443,50579,Northbound,St Mary's Road
Southbound Dakota at St. Mary's,49.83562,-97.11242,50482,Southbound,Dakota Street
Northbound St Mary's at Dakota,49.83565,-97.11296,50570,Northbound,St Mary's Road
Southbound St Mary's at Riel North (St. Vital Centre),49.82734,-97.11483,50578,Southbound,St Mary's Road
Northbound Dakota at St. Mary's,49.83577,-97.11209,50481,Northbound,Dakota Street
Southbound Dakota at St. Vital Centre,49.82977,-97.10658,50599,Southbound,Dakota Street
Northbound Dakota at St. Vital Centre,49.82994,-97.10635,50598,Northbound,Dakota Street
Eastbound St Vital Centre Terminal at St. Vital Centre (676 to Bridgwater),49.8267,-97.1104,50881,Eastbound,St Vital Centre Terminal
Eastbound St Vital Centre at St. Vital Centre Hub (552 to South St. Vital),49.82663,-97.11061,50883,Eastbound,St Vital Centre Terminal
Westbound St Vital Centre Hub at St. Vital Centre,49.82663,-97.11045,50877,Westbound,St Vital Centre Terminal
Eastbound St Vital Centre at St. Vital Centre Hub (556 to Sage Creek),49.82652,-97.11095,50882,Eastbound,St Vital Centre Terminal
Westbound St Vital Centre at St Vital Centre Hub (552 to Avalon Loop),49.82653,-97.11074,50878,Westbound,St Vital Centre Terminal
Eastbound St Vital Centre Hub at St. Vital Centre (FX2),49.82645,-97.11111,50884,Eastbound,St Vital Centre Terminal
Westbound St Vital Centre at St. Vital Centre Hub (556 to Plaza Drive),49.82645,-97.11094,50879,Westbound,St Vital Centre Terminal
Westbound St Vital Centre at St. Vital Centre Hub (676 to Creek Bend),49.82639,-97.11118,50880,Westbound,St Vital Centre Terminal
Westbound Riel at St. Mary's,49.82647,-97.11506,50687,Westbound,Riel Avenue
Eastbound Riel at St. Mary's,49.8264,-97.11482,50443,Eastbound,Riel Avenue
Westbound Meadowood at St. Vital Centre (FX2),49.82627,-97.11078,51109,Westbound,Meadowood Drive
Southbound Dakota at Meadowood,49.82854,-97.10557,50724,Southbound,Dakota Street
Westbound Meadowood at Dakota,49.82798,-97.10599,50616,Westbound,Meadowood Drive
Northbound Dakota at Meadowood,49.82851,-97.10516,51104,Northbound,Dakota Street
Eastbound Meadowood at Dakota,49.82776,-97.10594,50617,Eastbound,Meadowood Drive
Eastbound Riel at Robertson,49.82588,-97.11637,50445,Eastbound,Riel Avenue
Southbound Dunkirk at Hastings,49.83741,-97.11524,50478,Southbound,Dunkirk Drive
Westbound Riel at Glen Meadow,49.82581,-97.11694,50444,Westbound,Riel Avenue
Eastbound Beliveau at Eric,49.83679,-97.10638,50411,Eastbound,Beliveau Road
Northbound Dunkirk at Hastings,49.83816,-97.11548,50477,Northbound,Dunkirk Drive
Westbound Beliveau at Eric,49.83703,-97.10611,50410,Westbound,Beliveau Road
Northbound St Mary's at Hindley,49.83868,-97.11217,50567,Northbound,St Mary's Road
Southbound St Mary's at Hastings,49.83888,-97.1124,50565,Southbound,St Mary's Road
Westbound Meadowood at Brentford,49.83044,-97.10058,50665,Westbound,Meadowood Drive
Eastbound Meadowood at Brentford,49.8304,-97.1004,50661,Eastbound,Meadowood Drive
Northbound Dakota at Hazelwood,49.82611,-97.10319,50492,Northbound,Dakota Street
Southbound Dakota at Hazelwood,49.82552,-97.10308,50491,Southbound,Dakota Street
Eastbound Beliveau at Kearney,49.83783,-97.10333,50412,Eastbound,Beliveau Road
Westbound Beliveau at Kearney,49.83809,-97.103,50413,Westbound,Beliveau Road
Southbound Dunkirk at St. Vital,49.84049,-97.11771,50473,Southbound,Dunkirk Drive
Northbound Dunkirk at St. Vital,49.84059,-97.11751,50474,Northbound,Dunkirk Drive
Eastbound Meadowood at Ashworth,49.83156,-97.09764,50662,Eastbound,Meadowood Drive
Eastbound St Vital at Dunkirk,49.8409,-97.11714,50382,Eastbound,St Vital Road
Westbound St Vital at Dunkirk,49.84087,-97.11764,50381,Westbound,St Vital Road
Northbound Ashworth at Meadowood,49.83146,-97.09721,50683,Northbound,Ashworth Street
Southbound Ashworth at Wales,49.83007,-97.09628,50424,Southbound,Ashworth Street
Northbound Ashworth at Wales,49.83024,-97.09621,50679,Northbound,Ashworth Street
Westbound St Vital at St. Mary's,49.84234,-97.11338,50379,Westbound,St Vital Road
Southbound St Mary's at St. Vital,49.84235,-97.11263,51103,Southbound,St Mary's Road
Westbound Beliveau at Beechtree,49.83903,-97.10027,50415,Westbound,Beliveau Road
Eastbound Beliveau at Beechtree,49.83894,-97.10011,50414,Eastbound,Beliveau Road
Southbound Dakota at Novavista,49.82303,-97.10099,50495,Southbound,Dakota Street
Northbound Dakota at Novavista,49.82314,-97.10079,50497,Northbound,Dakota Street
Northbound St Mary's at St. Vital,49.8429,-97.1124,50562,Northbound,St Mary's Road
Southbound Ashworth at Woodydell,49.82809,-97.09466,50426,Southbound,Ashworth Street
Northbound Ashworth at Woodydell,49.82823,-97.09456,50673,Northbound,Ashworth Street
Eastbound Beliveau at Behnke,49.83967,-97.098,50725,Eastbound,Beliveau Road
Westbound Beliveau at Behnke,49.83982,-97.098,50726,Westbound,Beliveau Road
Northbound Ashworth at Whitley,49.82663,-97.09322,50672,Northbound,Ashworth Street
Southbound Ashworth at Whitley,49.82637,-97.09322,50668,Southbound,Ashworth Street
Southbound St Mary's at Norberry,49.84564,-97.11302,50557,Southbound,St Mary's Road
Northbound St Mary's at Norberry,49.84579,-97.11269,50558,Northbound,St Mary's Road
Westbound Abinojii Mikanah at St. Anne's,49.83831,-97.09327,50407,Westbound,Abinojii Mikanah
Southbound St Anne's at Meadowood,49.83442,-97.09099,50832,Southbound,St Anne's Road
Southbound St Anne's at Abinojii Mikanah,49.8384,-97.09315,50517,Southbound,St Anne's Road
Northbound St Anne's at Meadowood,49.83451,-97.0907,50513,Northbound,St Anne's Road
Northbound St Anne's at Abinojii Mikanah,49.83813,-97.09266,50516,Northbound,St Anne's Road
Northbound Dunkirk at West Fernwood,49.84601,-97.11695,50469,Northbound,Dunkirk Drive
Eastbound Abinojii Mikanah at St. Anne's,49.83822,-97.09246,50406,Eastbound,Abinojii Mikanah
Southbound Dunkirk at West Fernwood,49.84604,-97.11731,50470,Southbound,Dunkirk Drive
Westbound Beliveau at St. Anne's,49.84091,-97.09483,50417,Westbound,Beliveau Road
Southbound St Anne's at Beliveau,49.84066,-97.09422,50520,Southbound,St Anne's Road
Southbound Ashworth at Novavista,49.82462,-97.09166,50669,Southbound,Ashworth Street
Northbound Ashworth at Novavista,49.82475,-97.09155,50671,Northbound,Ashworth Street
Northbound St Anne's at Beliveau,49.84144,-97.09437,50521,Northbound,St Anne's Road
Southbound St Anne's at Worthington,49.84266,-97.0953,50522,Southbound,St Anne's Road
Northbound North at Wildwood A,49.8459,-97.12342,60800,Northbound,North Drive
Southbound St Anne's at Woodydell,49.83039,-97.08772,50509,Southbound,St Anne's Road
Northbound St Anne's at Worthington,49.84334,-97.09544,50523,Northbound,St Anne's Road
Southbound North at Wildwood A,49.8462,-97.12398,60277,Southbound,North Drive
Northbound St Anne's at Woodydell,49.83033,-97.08729,50508,Northbound,St Anne's Road
Southbound Ashworth at Harlesden,49.82304,-97.09036,50670,Southbound,Ashworth Street
Northbound Ashworth at Harlesden,49.8229,-97.09001,50681,Northbound,Ashworth Street
Northbound St Mary's at Hull,49.84893,-97.11225,50554,Northbound,St Mary's Road
Southbound St Mary's at Hull,49.84916,-97.11252,50553,Southbound,St Mary's Road
Southbound Shorehill at John Bruce,49.8327,-97.07682,50930,Southbound,Shorehill Drive
Northbound Shorehill at John Bruce,49.83258,-97.07658,50889,Northbound,Shorehill Drive
Southbound Shorehill at Wildfire,49.83439,-97.07648,50888,Southbound,Shorehill Drive
Southbound Shorehill at River Valley,49.82947,-97.07525,50902,Southbound,Shorehill Drive
Northbound Shorehill at River Valley,49.82946,-97.07499,50907,Northbound,Shorehill Drive
Northbound Shorehill at Wildfire,49.8346,-97.0762,50890,Northbound,Shorehill Drive
Southbound St Anne's at Novavista,49.82724,-97.08526,50675,Southbound,St Anne's Road
Northbound St Anne's at Novavista,49.82693,-97.08474,50727,Northbound,St Anne's Road
Southbound Shorehill at Beaudry,49.83651,-97.07835,50887,Southbound,Shorehill Drive
Northbound Shorehill at Norcross,49.83651,-97.07795,50891,Northbound,Shorehill Drive
Southbound Shorehill at Waldport,49.82807,-97.07349,50903,Southbound,Shorehill Drive
Northbound Shorehill at Waldport,49.82802,-97.07318,50906,Northbound,Shorehill Drive
Northbound St Anne's at Compark,49.82505,-97.08377,50812,Northbound,St Anne's Road
Southbound Shorehill at Aubin,49.83852,-97.08104,50886,Southbound,Shorehill Drive
Southbound St Anne's at Compark,49.82432,-97.08373,51088,Southbound,St Anne's Road
Westbound Compark at St. Anne's,49.82443,-97.08449,51033,Westbound,Compark Road
Northbound Shorehill at High Ridge,49.83895,-97.08125,50892,Northbound,Shorehill Drive
Southbound Shorehill at Demetrioff,49.82634,-97.07212,50904,Southbound,Shorehill Drive
Northbound Shorehill at Demetrioff,49.82643,-97.0719,50905,Northbound,Shorehill Drive
Southbound Island Shore at Huppe,49.83564,-97.07084,50787,Southbound,Island Shore Boulevard
Northbound Island Shore at Huppe,49.83517,-97.07027,50769,Northbound,Island Shore Boulevard
Southbound Shorehill at Westwater East,49.8247,-97.07365,50951,Southbound,Shorehill Drive
Northbound Shorehill at Yorkwood,49.82498,-97.07305,50950,Northbound,Shorehill Drive
Southbound Shorehill at Abinojii Mikanah,49.84005,-97.08206,50885,Southbound,Shorehill Drive
Northbound Shorehill at Abinojii Mikanah,49.84014,-97.08173,50893,Northbound,Shorehill Drive
Westbound Island Lakes at Island Shore,49.83315,-97.06774,51076,Westbound,Island Lakes Drive
Westbound Compark at Ashworth,49.82332,-97.08769,50502,Westbound,Compark Road
Eastbound Island Lakes at Island Shore,49.83309,-97.06754,51050,Eastbound,Island Lakes Drive
Eastbound Abinojii Mikanah at Shorehill,49.84054,-97.08018,50816,Eastbound,Abinojii Mikanah
Westbound Abinojii Mikanah at Shorehill,49.84083,-97.08166,50824,Westbound,Abinojii Mikanah
Southbound Island Shore at Charbonneau,49.83749,-97.07023,50786,Southbound,Island Shore Boulevard
Northbound Island Shore at Tidewater,49.83742,-97.06989,50657,Northbound,Island Shore Boulevard
Southbound Lakewood at Abinojii Mikanah North,49.8417,-97.07262,50633,Southbound,Lakewood Boulevard
Southbound Evelyne Reese at Bonaventure,49.82725,-97.0644,51053,Southbound,Evelyne Reese Boulevard
Eastbound Island Lakes at Desjardins,49.83492,-97.06399,51051,Eastbound,Island Lakes Drive
Westbound Island Lakes at Desjardins,49.83504,-97.06402,51075,Westbound,Island Lakes Drive
Northbound Lakewood at Abinojii Mikanah North,49.8418,-97.0725,50634,Northbound,Lakewood Boulevard
Northbound Evelyne Reese at Bonaventure,49.8272,-97.06422,51069,Northbound,Evelyne Reese Boulevard
Southbound Island Shore at Evelyne Reese,49.82875,-97.06325,51070,Southbound,Island Shore Boulevard
Northbound Island Shore at Evelyne Reese,49.82887,-97.06321,51052,Northbound,Island Shore Boulevard
Eastbound Beaverhill at Willowlake,49.84341,-97.08385,50860,Eastbound,Beaverhill Boulevard
Eastbound Beaverhill at Bromton,49.84351,-97.08051,50355,Eastbound,Beaverhill Boulevard
Westbound Beaverhill at Cherwell,49.84363,-97.08032,50354,Westbound,Beaverhill Boulevard
Westbound Beaverhill at Bluewater,49.8436,-97.08336,50357,Westbound,Beaverhill Boulevard
Eastbound Beaverhill at St. Hilaire,49.84351,-97.07695,50364,Eastbound,Beaverhill Boulevard
Westbound Beaverhill at St. Hilaire,49.8437,-97.07663,50632,Westbound,Beaverhill Boulevard
Southbound Island Shore at Waterfront,49.83925,-97.06571,50784,Southbound,Island Shore Boulevard
Southbound Evelyne Reese at Geneva,49.82459,-97.06398,51054,Southbound,Evelyne Reese Boulevard
Northbound Desjardins at Myles Robinson,49.83647,-97.06254,50792,Northbound,Desjardins Drive
Northbound Evelyne Reese at Geneva,49.82466,-97.06381,51068,Northbound,Evelyne Reese Boulevard
Northbound Island Shore at Henry Dormer,49.82854,-97.06141,50923,Northbound,Island Shore Boulevard
Southbound Lakewood at Beaverhill,49.84426,-97.07544,50367,Southbound,Lakewood Boulevard
Southbound Island Shore at Brian Monkman,49.82838,-97.06125,50914,Southbound,Island Shore Boulevard
Northbound Island Shore at Waterfront,49.83974,-97.06509,50730,Northbound,Island Shore Boulevard
Eastbound Willowlake at Bluewater,49.8446,-97.08577,50358,Eastbound,Willowlake Crescent
Westbound Willowlake at Bluewater,49.84462,-97.08603,50359,Westbound,Willowlake Crescent
Northbound Lakewood at Beaverhill,49.84449,-97.07535,50368,Northbound,Lakewood Boulevard
Westbound Beaverhill at Lakewood,49.84426,-97.07403,50353,Westbound,Beaverhill Boulevard
Eastbound Beaverhill at Lakewood,49.84422,-97.0736,50352,Eastbound,Beaverhill Boulevard
Eastbound Abinojii Mikanah at Island Shore,49.84054,-97.06491,51018,Eastbound,Abinojii Mikanah
Westbound Abinojii Mikanah at Island Shore,49.84084,-97.06499,51021,Westbound,Abinojii Mikanah
Westbound Beaverhill at Collingwood,49.84469,-97.07141,50349,Westbound,Beaverhill Boulevard
Eastbound Beaverhill at Collingwood,49.84452,-97.07087,50348,Eastbound,Beaverhill Boulevard
Northbound Island Shore at De La Seigneurie,49.82843,-97.05873,50922,Northbound,Island Shore Boulevard
Southbound Island Shore at De La Seigneurie,49.82832,-97.05858,50915,Southbound,Island Shore Boulevard
Eastbound Willowlake at Willow Point,49.84651,-97.08429,50360,Eastbound,Willowlake Crescent
Eastbound Beaverhill at Driftwood,49.84404,-97.06802,50347,Eastbound,Beaverhill Boulevard
Westbound Willowlake at Willow Point,49.84666,-97.0842,50361,Westbound,Willowlake Crescent
Northbound Evelyne Reese at Warde,49.82308,-97.0615,51067,Northbound,Evelyne Reese Boulevard
Southbound Evelyne Reese at Warde,49.82298,-97.06161,51055,Southbound,Evelyne Reese Boulevard
Westbound Beaverhill at Driftwood,49.84418,-97.06805,50346,Westbound,Beaverhill Boulevard
Southbound De La Seigneurie at Dockside,49.82989,-97.0577,50921,Southbound,De La Seigneurie Boulevard
Northbound De La Seigneurie at Pauline Boutal South,49.83004,-97.05721,50916,Northbound,De La Seigneurie Boulevard
Northbound Lakewood at Tamarac,49.84689,-97.07658,50371,Northbound,Lakewood Boulevard
Eastbound Willowlake at Pebble Beach,49.84733,-97.08072,50362,Eastbound,Willowlake Crescent
Southbound Lakewood at Tamarac,49.8473,-97.07695,50372,Southbound,Lakewood Boulevard
Westbound Willowlake at Pebble Beach,49.84759,-97.08019,50363,Westbound,Willowlake Crescent
Eastbound Beaverhill at Baywater,49.84428,-97.06558,50344,Eastbound,Beaverhill Boulevard
Westbound Beaverhill at Baywater,49.84441,-97.06563,50345,Westbound,Beaverhill Boulevard
Eastbound Willowlake at Lakewood,49.84789,-97.07785,50365,Eastbound,Willowlake Crescent
Westbound Willowlake at Lakewood,49.84802,-97.07763,50366,Westbound,Willowlake Crescent
Southbound Desjardins at De La Seigneurie,49.83873,-97.058,51073,Southbound,Desjardins Drive
Southbound De La Seigneurie at Warde,49.82652,-97.05656,51063,Southbound,De La Seigneurie Boulevard
Northbound De La Seigneurie at Warde,49.8267,-97.05635,51059,Northbound,De La Seigneurie Boulevard
Southbound De La Seigneurie at Desjardins,49.83839,-97.05755,50783,Southbound,De La Seigneurie Boulevard
Southbound De La Seigneurie at Langton,49.83083,-97.05519,50920,Southbound,De La Seigneurie Boulevard
Southbound De La Seigneurie at Pynoo,49.83666,-97.05579,50795,Southbound,De La Seigneurie Boulevard
Northbound De La Seigneurie at Lessard,49.83086,-97.05412,50917,Northbound,De La Seigneurie Boulevard
Northbound De La Seigneurie at Pynoo,49.83658,-97.05518,51072,Northbound,De La Seigneurie Boulevard
Northbound De La Seigneurie at Pauline Boutal North,49.8314,-97.05297,50918,Northbound,De La Seigneurie Boulevard
Southbound De La Seigneurie at Pauline Boutal North,49.83163,-97.05297,50919,Southbound,De La Seigneurie Boulevard
Northbound De La Seigneurie at Lakeview,49.83318,-97.05233,57014,Northbound,De La Seigneurie Boulevard
Southbound De La Seigneurie at Island Lakes,49.83368,-97.05267,50595,Southbound,De La Seigneurie Boulevard
Eastbound Sage Creek at Burning Glass,49.83364,-97.04658,50898,Eastbound,Sage Creek Boulevard
Westbound Warde at Lagimodiere,49.82845,-97.04825,51062,Westbound,Warde Avenue
Eastbound Warde at Lagimodiere,49.82828,-97.04842,51060,Eastbound,Warde Avenue
Northbound Burning Glass at Sage Creek,49.83322,-97.04551,50899,Northbound,Burning Glass Road
Westbound Sage Creek at Burning Glass,49.8339,-97.04609,57002,Westbound,Sage Creek Boulevard
Westbound Lafrance at Proulx,49.83224,-97.04402,50896,Westbound,Lafrance Lane
Southbound De La Seigneurie at Cassin,49.8352,-97.05344,50503,Southbound,De La Seigneurie Boulevard
Northbound Burning Glass at Dr. David Friesen,49.83512,-97.04549,50990,Northbound,Burning Glass Road
Southbound Des Hivernants at Ironweed,49.82885,-97.04346,51061,Southbound,Des Hivernants Boulevard
Northbound Des Hivernants at Ironweed,49.82876,-97.04313,50897,Northbound,Des Hivernants Boulevard
Eastbound Dr. David Friesen at Des Hivernants,49.83613,-97.04306,51009,Eastbound,Dr. David Friesen Drive
Northbound Des Hivernants at Cinnamon Teal,49.8259,-97.04425,51048,Northbound,Des Hivernants Boulevard
Northbound De La Seigneurie at Lucerne,49.82502,-97.05454,51058,Northbound,De La Seigneurie Boulevard
Southbound De La Seigneurie at Lucerne,49.82488,-97.05481,51064,Southbound,De La Seigneurie Boulevard
Northbound Des Hivernants at Edward Turner,49.83802,-97.04088,51035,Northbound,Des Hivernants Boulevard
Eastbound Abinojii Mikanah at De La Seigneurie,49.84052,-97.05712,51019,Eastbound,Abinojii Mikanah
Westbound Abinojii Mikanah at De La Seigneurie,49.84083,-97.05719,51020,Westbound,Abinojii Mikanah
Southbound Edward Turner at Sage Creek,49.83368,-97.03257,51039,Southbound,Edward Turner Drive
Eastbound Sage Creek at Charity,49.8318,-97.03173,50992,Eastbound,Sage Creek Boulevard
Eastbound Edward Turner at Snowberry,49.83776,-97.03435,51037,Eastbound,Edward Turner Drive
Southbound Edward Turner at Water Lily,49.83576,-97.03179,51038,Southbound,Edward Turner Drive
Westbound Robert Bockstael at Sage Creek,49.82477,-97.03328,51042,Westbound,Robert Bockstael Drive
Eastbound Capston at Cliffwood,49.84446,-97.05399,50337,Eastbound,Capston Road
Westbound Capston at Cliffwood,49.84459,-97.05405,50338,Westbound,Capston Road
Southbound Sage Creek at Borealis,49.82752,-97.02996,51040,Southbound,Sage Creek Boulevard
Westbound Robert Bockstael at Snowy Owl,49.82212,-97.03475,51043,Westbound,Robert Bockstael Drive
Northbound Newcroft at Shamrock,49.84489,-97.05753,50336,Northbound,Newcroft Road
Southbound Newcroft at Shamrock,49.84487,-97.05782,50335,Southbound,Newcroft Road
Eastbound Shamrock at Cliffwood,49.8457,-97.05958,50333,Eastbound,Shamrock Drive
Westbound Shamrock at Cliffwood,49.84584,-97.06073,50334,Westbound,Shamrock Drive
Eastbound Burmac at Lagimodiere,49.84798,-97.05077,50340,Eastbound,Burmac Road
Westbound Burmac at Lagimodiere,49.8481,-97.05097,50341,Westbound,Burmac Road
Eastbound Shamrock at Beaverhill,49.84572,-97.06372,50332,Eastbound,Shamrock Drive
Westbound Shamrock at Beaverhill,49.84585,-97.06378,50331,Westbound,Shamrock Drive
Northbound Beaverhill at Shamrock,49.8461,-97.06412,50329,Northbound,Beaverhill Boulevard
Southbound Beaverhill at Courtwood,49.84643,-97.06434,50330,Southbound,Beaverhill Boulevard
Eastbound Grant at Oakdale,49.85926,-97.27026,60536,Eastbound,Grant Avenue
Westbound Grant at Oakdale,49.85946,-97.26983,60535,Westbound,Grant Avenue
Eastbound Grant at Haney,49.85909,-97.26585,60534,Eastbound,Grant Avenue
Eastbound Grant at Fairmont,49.85902,-97.27424,60538,Eastbound,Grant Avenue
Westbound Grant at Fairmont,49.85918,-97.27454,60537,Westbound,Grant Avenue
Westbound Grant at Haney,49.8593,-97.2655,60533,Westbound,Grant Avenue
Westbound Eldridge at Oakdale,49.85287,-97.27111,60630,Westbound,Eldridge Avenue
Eastbound Eldridge at Oakdale,49.85276,-97.2716,60631,Eastbound,Eldridge Avenue
Westbound Eldridge at Fairmont,49.85301,-97.27457,60629,Westbound,Eldridge Avenue
Westbound Eldridge at Haney,49.8527,-97.266,61078,Westbound,Eldridge Avenue
Eastbound Roblin at Grant,49.85933,-97.27722,60509,Eastbound,Roblin Boulevard
Eastbound Eldridge at Fairmont,49.85289,-97.27481,60628,Eastbound,Eldridge Avenue
Eastbound Eldridge at Haney,49.85257,-97.26589,61065,Eastbound,Eldridge Avenue
Westbound Roblin at Grant,49.85893,-97.27778,60540,Westbound,Roblin Boulevard
Eastbound Roblin at Marlton South,49.86144,-97.27622,60508,Eastbound,Roblin Boulevard
Westbound Roblin at Marlton South,49.86156,-97.27642,60507,Westbound,Roblin Boulevard
Westbound Grant at Laxdal,49.85908,-97.26048,60531,Westbound,Grant Avenue
Southbound William Clement at Roblin South,49.86346,-97.26739,61086,Southbound,William Clement Parkway
Eastbound Grant at Charleswood Centre (Park & Ride),49.85885,-97.2602,60532,Eastbound,Grant Avenue
Northbound William Clement at Roblin South,49.86361,-97.26691,61087,Northbound,William Clement Parkway
Eastbound Roblin at Shenfield,49.86361,-97.27519,60505,Eastbound,Roblin Boulevard
Westbound Roblin at Shenfield,49.8637,-97.27543,60506,Westbound,Roblin Boulevard
Westbound Eldridge at Buckingham,49.8532,-97.27984,60625,Westbound,Eldridge Avenue
Eastbound Eldridge at Buckingham,49.85307,-97.27972,60624,Eastbound,Eldridge Avenue
Northbound Laxdal at Eldridge,49.85225,-97.26049,60644,Northbound,Laxdal Road
Southbound Laxdal at Eldridge,49.85208,-97.26069,61066,Southbound,Laxdal Road
Eastbound Roblin at Dieppe,49.85757,-97.28285,60545,Eastbound,Roblin Boulevard
Westbound Roblin at Dieppe,49.85784,-97.28316,60546,Westbound,Roblin Boulevard
Eastbound Roblin at Batchelor,49.86551,-97.27429,60503,Eastbound,Roblin Boulevard
Westbound Roblin at Batchelor,49.86569,-97.27448,60502,Westbound,Roblin Boulevard
Westbound Eldridge at Elmhurst,49.85234,-97.25679,60665,Westbound,Eldridge Avenue
Eastbound Roblin at Marlton North,49.86715,-97.27205,60500,Eastbound,Roblin Boulevard
Eastbound Eldridge at Elmhurst,49.8522,-97.25636,61074,Eastbound,Eldridge Avenue
Eastbound Roblin at Oakdale,49.86736,-97.27011,60498,Eastbound,Roblin Boulevard
Westbound Roblin at Marlton North,49.86729,-97.27256,60499,Westbound,Roblin Boulevard
Southbound Laxdal at Beiko,49.84865,-97.26101,61068,Southbound,Laxdal Road
Westbound Grant at Cathcart,49.85885,-97.2543,60527,Westbound,Grant Avenue
Southbound Cathcart at Chalfont,49.85554,-97.25421,60653,Southbound,Cathcart Street
Northbound Laxdal at Beiko,49.84864,-97.26081,60646,Northbound,Laxdal Road
Westbound Roblin at Oakdale,49.86754,-97.2699,60497,Westbound,Roblin Boulevard
Southbound Cathcart at Grant,49.8584,-97.25394,60654,Southbound,Cathcart Street
Northbound Cathcart at Chalfont,49.85495,-97.25406,61076,Northbound,Cathcart Street
Northbound Cathcart at Grant,49.85814,-97.25377,61077,Northbound,Cathcart Street
Eastbound Grant at Cathcart,49.85861,-97.2534,60528,Eastbound,Grant Avenue
Eastbound Roblin at William Clement,49.86772,-97.26603,60494,Eastbound,Roblin Boulevard
Eastbound Eldridge at Harstone,49.85331,-97.28601,60620,Eastbound,Eldridge Avenue
Westbound Eldridge at Harstone,49.85345,-97.28625,61080,Westbound,Eldridge Avenue
Southbound William Clement at Roblin North,49.86802,-97.26592,60448,Southbound,William Clement Parkway
Westbound Roblin at William Clement,49.86799,-97.26537,60493,Westbound,Roblin Boulevard
Northbound William Clement at Roblin,49.86819,-97.26541,60001,Northbound,William Clement Parkway
Westbound Roblin at Lannoo,49.85864,-97.28766,60552,Westbound,Roblin Boulevard
Eastbound Roblin at Pepperloaf,49.85849,-97.28807,60553,Eastbound,Roblin Boulevard
Southbound Elmhurst at Beiko,49.84802,-97.25755,60649,Southbound,Elmhurst Road
Northbound Elmhurst at Beiko South,49.84802,-97.25736,61072,Northbound,Elmhurst Road
Southbound Harstone at Rannock,49.85124,-97.28678,60618,Southbound,Harstone Road
Eastbound Roblin at Princeton,49.86814,-97.26089,60490,Eastbound,Roblin Boulevard
Eastbound Rannock at Harstone,49.85109,-97.28696,60619,Eastbound,Rannock Avenue
Westbound Roblin at Princeton,49.86839,-97.26026,60489,Westbound,Roblin Boulevard
Westbound Roblin at William Marshall,49.85904,-97.28984,60555,Westbound,Roblin Boulevard
Eastbound Roblin at Greenbrier,49.8589,-97.29029,60554,Eastbound,Roblin Boulevard
Westbound Roblin at McLean,49.86856,-97.25804,60487,Westbound,Roblin Boulevard
Eastbound Roblin at McLean,49.86832,-97.25707,60486,Eastbound,Roblin Boulevard
Westbound Rannock at Pepperloaf,49.85108,-97.29023,60617,Westbound,Rannock Avenue
Westbound Roblin at Scotswood,49.85949,-97.29245,60556,Westbound,Roblin Boulevard
Eastbound Rannock at Pepperloaf,49.8509,-97.2907,60616,Eastbound,Rannock Avenue
Eastbound Roblin at Scotswood,49.85936,-97.29295,60557,Eastbound,Roblin Boulevard
Westbound Roblin at Wexford,49.86828,-97.25271,60482,Westbound,Roblin Boulevard
Eastbound Roblin at Wexford,49.86808,-97.25239,60483,Eastbound,Roblin Boulevard
Eastbound Assiniboine at Westwood,49.86539,-97.29172,20513,Eastbound,Assiniboine Avenue
Southbound Westwood at Assiniboine,49.86563,-97.29168,20368,Southbound,Westwood Drive
Eastbound Roblin at Chalfont,49.86793,-97.25003,60481,Eastbound,Roblin Boulevard
Westbound Roblin at Chalfont,49.86813,-97.24982,60480,Westbound,Roblin Boulevard
Eastbound Rannock at Scotswood,49.85046,-97.29504,60812,Eastbound,Rannock Avenue
Westbound Rannock at Scotswood,49.85058,-97.29512,60850,Westbound,Rannock Avenue
Northbound Moray at Portage,49.87417,-97.2629,20458,Northbound,Moray Street
Southbound Moray at Portage,49.87428,-97.26323,20457,Southbound,Moray Street
Eastbound Roblin at Community,49.86011,-97.29707,60561,Eastbound,Roblin Boulevard
Westbound Assiniboine at Carroll,49.8655,-97.29446,20369,Westbound,Assiniboine Avenue
Westbound Grant at Shaftesbury,49.85799,-97.23009,60521,Westbound,Grant Avenue
Eastbound Grant at Shaftesbury,49.85777,-97.22989,60522,Eastbound,Grant Avenue
Westbound West Taylor at Shaftesbury,49.8513,-97.23017,61029,Westbound,West Taylor Boulevard
Eastbound West Taylor at Shaftesbury,49.85108,-97.23001,61030,Eastbound,West Taylor Boulevard
Eastbound Grant at Kelvin,49.85714,-97.22388,60517,Eastbound,Grant Avenue
Westbound Grant at Kelvin,49.85736,-97.22385,60518,Westbound,Grant Avenue
Westbound West Taylor at Holland,49.85068,-97.22642,61028,Westbound,West Taylor Boulevard
Eastbound West Taylor at Holland,49.85053,-97.2263,61031,Eastbound,West Taylor Boulevard
Eastbound Roblin at Zoo,49.86746,-97.24137,60477,Eastbound,Roblin Boulevard
Westbound Zoo at Zoo Loop,49.86788,-97.24132,60475,Westbound,Zoo Loop
Eastbound Corydon at Shaftesbury (Assiniboine Park),49.86697,-97.22889,60472,Eastbound,Corydon Avenue
Westbound Corydon at Shaftesbury,49.8672,-97.22941,60471,Westbound,Corydon Avenue
Westbound Taylor at Park South,49.85021,-97.22143,61027,Westbound,Taylor Avenue
Eastbound Taylor at Park South,49.85009,-97.22144,61032,Eastbound,Taylor Avenue
Eastbound Grant at Portsmouth,49.85732,-97.21751,60514,Eastbound,Grant Avenue
Westbound Grant at Portsmouth,49.85755,-97.2171,60513,Westbound,Grant Avenue
Northbound Portsmouth at Coleraine,49.85285,-97.21751,60842,Northbound,Portsmouth Boulevard
Eastbound Swindon at Ramsgate,49.85443,-97.21643,60843,Eastbound,Swindon Way
Westbound Taylor at Coleraine,49.85019,-97.21866,61026,Westbound,Taylor Avenue
Eastbound Taylor at Coleraine,49.85007,-97.21851,61033,Eastbound,Taylor Avenue
Eastbound Corydon at Park,49.86664,-97.2207,60466,Eastbound,Corydon Avenue
Westbound Corydon at Park,49.86691,-97.22086,60465,Westbound,Corydon Avenue
Northbound Portsmouth at Swindon,49.85192,-97.21674,60841,Northbound,Portsmouth Boulevard
Southbound Swindon at Swindon North,49.85409,-97.21449,60844,Southbound,Swindon Way
Northbound Portsmouth at Taylor,49.8509,-97.2157,60840,Northbound,Portsmouth Boulevard
Southbound Portsmouth at Taylor,49.85065,-97.21582,60847,Southbound,Portsmouth Boulevard
Southbound Swindon at Swindon South,49.8523,-97.21461,60845,Southbound,Swindon Way
Westbound Corydon at Handsart,49.86678,-97.21787,60463,Westbound,Corydon Avenue
Eastbound Corydon at Handsart,49.86645,-97.21678,60462,Eastbound,Corydon Avenue
Eastbound Taylor at Morpeth,49.85055,-97.21293,60848,Eastbound,Taylor Avenue
Eastbound Grant at Kenaston West,49.85716,-97.20758,60424,Eastbound,Grant Avenue
Westbound Grant at Kenaston West,49.85738,-97.20757,67001,Westbound,Grant Avenue
Northbound Kenaston at Grant South,49.85674,-97.20653,60422,Northbound,Kenaston Boulevard
Southbound Kenaston at Grant,49.8579,-97.20673,61041,Southbound,Kenaston Boulevard
Southbound Kenaston at Grant South,49.8562,-97.20688,60423,Southbound,Kenaston Boulevard
Northbound Kenaston at Grant North,49.858,-97.2064,60427,Northbound,Kenaston Boulevard
Eastbound Grant at Kenaston East,49.85705,-97.20483,60408,Eastbound,Grant Avenue
Westbound Grant at Kenaston East,49.85727,-97.20474,60426,Westbound,Grant Avenue
Northbound Kenaston at Boulton North,49.85414,-97.20678,60421,Northbound,Kenaston Boulevard
Southbound Kenaston at Boulton North,49.85404,-97.2071,60420,Southbound,Kenaston Boulevard
Southbound Kenaston at Carpathia South,49.86058,-97.2065,60429,Southbound,Kenaston Boulevard
Northbound Kenaston at Carpathia South,49.86103,-97.20613,60430,Northbound,Kenaston Boulevard
Eastbound Grant at Lanark,49.85681,-97.19909,60404,Eastbound,Grant Avenue
Westbound Grant at Lanark,49.85703,-97.19897,60405,Westbound,Grant Avenue
Northbound Kenaston at Taylor,49.85084,-97.20713,60352,Northbound,Kenaston Boulevard
Southbound Kenaston at Taylor,49.85078,-97.20744,60929,Southbound,Kenaston Boulevard
Westbound Taylor at Kenaston East,49.85042,-97.20654,60417,Westbound,Taylor Avenue
Westbound Taylor at Kenaston West,49.85058,-97.20984,60838,Westbound,Taylor Avenue
